iderp;nom;activite;adresse;lat;lon;type;categorie
;GYMNASE SUZANNE BERLIOUX;Salle multisports;117 RUE RAMBUTEAU 75001;48.86181; 2.34679;X;
;CENTRE D'ETUDE D'ACTION SOCIALE ET CULTURELLE;Salle de danse;23 RUE DE LA SOURDIERE 75001;48.86656; 2.33264;X;
;GYMNASE SUZANNE BERLIOUX;Salle multisports;117 RUE RAMBUTEAU 75001;48.86181; 2.34679;X;
;GYMNASE SUZANNE BERLIOUX;Salle multisports;117 RUE RAMBUTEAU 75001;48.86181; 2.34679;X;
;GYMNASE SUZANNE BERLIOUX;Salle multisports;117 RUE RAMBUTEAU 75001;48.86181; 2.34679;X;
;UNIVERS GYM PARIS;Salle de musculation/cardiotraining;20-22 RUE DES BONS ENFANTS 75001;48.86347; 2.3386;X;
;GYMNASE SUZANNE BERLIOUX;Salle multisports;117 RUE RAMBUTEAU 75001;48.86181; 2.34679;X;
;GYMNASE SUZANNE BERLIOUX;Salle multisports;117 RUE RAMBUTEAU 75001;48.86181; 2.34679;X;
;RITZ HEALTH CLUB;Salle ou terrain de squash;17 PLACE VENDOME 75001;48.86797; 2.32891;X;
;GYMNASE SUZANNE BERLIOUX;Salles polyvalentes / des fêtes / non spécialisées;117 RUE RAMBUTEAU 75001;48.86181; 2.34679;X;
;CENTRE SPORTIF JEAN DAME;Salle multisports;17 RUE LéOPOLD BELLAN 75002;48.86658; 2.34527;X;
;BNP PARIBAS;Salle de musculation/cardiotraining;3 RUE LOUIS LE GRAND 75002;48.86824; 2.33196;X;
;CENTRE SPORTIF JEAN DAME;Salle multisports;17 RUE LéOPOLD BELLAN 75002;48.86658; 2.34527;X;
;CENTRE SPORTIF JEAN DAME;Salle multisports;17 RUE LéOPOLD BELLAN 75002;48.86658; 2.34527;X;
;ASSOCIATION SPORTIVE DE LA BANQUE DE FRANCE;Salle multisports;4 RUE MARSOLLIER 75002;48.86763; 2.33481;X;
;ASSOCIATION SPORTIVE DE LA BANQUE DE FRANCE;Salle multisports;4 RUE MARSOLLIER 75002;48.86763; 2.33481;X;
;ASSOCIATION SPORTIVE DE LA BANQUE DE FRANCE;Salle multisports;4 RUE MARSOLLIER 75002;48.86763; 2.33481;X;
;FITNESS CLUB BOURSE;Salle de musculation/cardiotraining;24 RUE FEYDEAU 75002;48.86991; 2.34038;X;
;CENTRE SPORTIF JEAN DAME;Dojo / Salle d'arts martiaux;17 RUE LéOPOLD BELLAN 75002;48.86658; 2.34527;X;
;CENTRE SPORTIF JEAN DAME;Salle multisports;17 RUE LéOPOLD BELLAN 75002;48.86658; 2.34527;X;
;MAGENIA - ECOLE ELLA JAROSZEWICZ;Salle de danse;16 RUE SAINT MARC 75002;48.87043; 2.34052;X;
;MAGENIA - ECOLE ELLA JAROSZEWICZ;Salle de danse;16 RUE SAINT MARC 75002;48.87043; 2.34052;X;
;ASSOCIATION SPORTIVE DE LA BANQUE DE FRANCE;Dojo / Salle d'arts martiaux;4 RUE MARSOLLIER 75002;48.86763; 2.33481;X;
;CENTRE SPORTIF JEAN DAME;Salle de boxe;17 RUE LéOPOLD BELLAN 75002;48.86658; 2.34527;X;
;CENTRE SPORTIF JEAN DAME;Salle de gymnastique sportive;17 RUE LéOPOLD BELLAN 75002;48.86658; 2.34527;X;
;ASSOCIATION SPORTIVE DE LA BANQUE DE FRANCE;Salle de tennis de table;4 RUE MARSOLLIER 75002;48.86763; 2.33481;X;
;EURO MEN'S CLUB;Bassin ludique de natation;10 RUE ST MARC 75002;48.87035; 2.34144;X;
;L'USINE;Salle de musculation/cardiotraining;8 rue de la Michodière 75002;48.86931; 2.33453;X;
;L'USINE;Salle de musculation/cardiotraining;8 rue de la Michodière 75002;48.86931; 2.33453;X;
;L'USINE;Salle de cours collectifs;8 rue de la Michodière 75002;48.86931; 2.33453;X;
;ECOLE BERANGER;Salle multisports;3 RUE BERANGER 75003;48.86485; 2.36454;X;
;ECOLE BERANGER;Salle multisports;3 RUE BERANGER 75003;48.86485; 2.36454;X;
;SUN CITY;Bassin ludique de natation;62 BOULEVARD DE SEBASTOPOL 75003;48.86384; 2.35138;X;
;ECOLE BERANGER;Salle multisports;3 RUE BERANGER 75003;48.86485; 2.36454;X;
;CARREAU DU TEMPLE;Plateau EPS/Multisports/city-stades;2 RUE PERREE 75003;48.86397; 2.36208;X;
;CARREAU DU TEMPLE;Plateau EPS/Multisports/city-stades;2 RUE PERREE 75003;48.86397; 2.36208;X;
;GYMNASE MICHEL LE COMTE;Salle multisports;14 RUE MICHEL LE COMTE 75003;48.86214; 2.35638;X;
;GYMNASE MICHEL LE COMTE;Salle multisports;14 RUE MICHEL LE COMTE 75003;48.86214; 2.35638;X;
;GYMNASE MICHEL LE COMTE;Salle multisports;14 RUE MICHEL LE COMTE 75003;48.86214; 2.35638;X;
;CARREAU DU TEMPLE;Plateau EPS/Multisports/city-stades;2 RUE PERREE 75003;48.86397; 2.36208;X;
;LYCEE TURGOT;Salle multisports;69 RUE DE TURBIGO 75003;48.86637; 2.35871;X;
;COLLEGE VICTOR HUGO (bis);Salle multisports;11 RUE BARBETTE 75003;48.85893; 2.36054;X;
;VIT'HALLES BEAUBOURG;Salle de cours collectifs;48 RUE RAMBUTEAU 75003;48.86154; 2.35261;X;
;LYCEE TURGOT;Bassin sportif de natation;69 RUE DE TURBIGO 75003;48.86637; 2.35871;X;
;LYCEE CHARLEMAGNE;Salle multisports;14 RUE CHARLEMAGNE 75004;48.85419; 2.36033;X;
;LYCEE CHARLEMAGNE;Salle multisports;14 RUE CHARLEMAGNE 75004;48.85419; 2.36033;X;
;LYCEE CHARLEMAGNE;Salle multisports;14 RUE CHARLEMAGNE 75004;48.85419; 2.36033;X;
;LYCEE CHARLEMAGNE;Salle multisports;14 RUE CHARLEMAGNE 75004;48.85419; 2.36033;X;
;LYCEE CHARLEMAGNE;Salle multisports;14 RUE CHARLEMAGNE 75004;48.85419; 2.36033;X;
;TEP NEUVE SAINT PIERRE;Terrain de basket-ball;5 RUE NEUVE ST PIERRE 75004;48.85325; 2.36301;X;
;ECOLE DES FRANCS BOURGEOIS;Plateau EPS/Multisports/city-stades;21 RUE SAINT ANTOINE 75004;48.8549; 2.36039;X;
;ECOLE MASSILLON;Salle de gymnastique sportive;2 BIS QUAI DES CELESTINS 75004;48.85134; 2.36258;X;
;COLLEGE FRANCOIS COUPERIN;Plateau EPS/Multisports/city-stades;2 ALLEE DES JUSTES 75004;48.8554; 2.35654;X;
;TEP NEUVE SAINT PIERRE;Aire de saut;5 RUE NEUVE ST PIERRE 75004;48.85323; 2.36315;X;
;COLLEGE FRANCOIS COUPERIN;Plateau EPS/Multisports/city-stades;2 ALLEE DES JUSTES 75004;48.8554; 2.35654;X;
;TEP JARDINS SAINT PAUL;Plateau EPS/Multisports/city-stades;9 RUE CHARLEMAGNE 75004;48.85376; 2.36062;X;
;CENTRE SPORTIF SAINT MERRI;Salle multisports;16 RUE DU RENARD 75004;48.85942; 2.35269;X;
;CENTRE DE DANSE DU MARAIS;Salle de danse;41 RUE DU TEMPLE 75004;48.85971; 2.35351;X;
;CENTRE SPORTIF DES BLANCS MANTEAUX;Salle de danse;48 RUE VIEILLE DU TEMPLE 75004;48.85829; 2.35835;X;
;CENTRE DE DANSE DU MARAIS;Salle de danse;41 RUE DU TEMPLE 75004;48.85971; 2.35351;X;
;CENTRE DE DANSE DU MARAIS;Salle de danse;41 RUE DU TEMPLE 75004;48.85971; 2.35351;X;
;LYCEE SOPHIE GERMAIN;Plateau EPS/Multisports/city-stades;9 RUE JOUY 75004;48.8549; 2.35816;X;
;CENTRE SPORTIF DES BLANCS MANTEAUX;Salles polyvalentes / des fêtes / non spécialisées;48 RUE VIEILLE DU TEMPLE 75004;48.85829; 2.35835;X;
;CENTRE SPORTIF DES BLANCS MANTEAUX;Salle multisports;48 RUE VIEILLE DU TEMPLE 75004;48.85829; 2.35835;X;
;CENTRE DE DANSE DU MARAIS;Salle de danse;41 RUE DU TEMPLE 75004;48.85971; 2.35351;X;
;COLLEGE FRANCOIS COUPERIN;Plateau EPS/Multisports/city-stades;2 ALLEE DES JUSTES 75004;48.85526; 2.35646;X;
;CENTRE SPORTIF POLIVEAU;Salle multisports;39 bis RUE POLIVEAU 75005;48.83958; 2.35773;X;
;CENTRE SPORTIF POLIVEAU;Salle multisports;39 bis RUE POLIVEAU 75005;48.83958; 2.35773;X;
;CENTRE SPORTIF POLIVEAU;Salle multisports;39 bis RUE POLIVEAU 75005;48.83958; 2.35773;X;
;CENTRE SPORTIF JEAN SARAILH;Salle multisports;31 AVENUE GEORGES BERNANOS 75005;48.84054; 2.33733;X;
;UNIVERSITÉ PARIS VI;Salle de gymnastique sportive;4 PLACE DE JUSSIEU 75005;48.84786; 2.35818;X;
;GYMNASE ORTOLAN;Salle multisports;18 RUE ORTOLAN 75005;48.84273; 2.35014;X;
;ASSOCIATION SPORTIVE DE LA POLICE DE PARIS;Salle d'escrime;4 RUE DE LA MONTAGNE SAINTE GENEVIèVE 75005;48.84951; 2.34854;X;
;UNIVERSITÉ PARIS VI;Salle de gymnastique sportive;4 PLACE DE JUSSIEU 75005;48.84786; 2.35818;X;
;UNIVERSITÉ PARIS VI;Salle de gymnastique sportive;4 PLACE DE JUSSIEU 75005;48.84786; 2.35818;X;
;CENTRE SPORTIF JEAN SARAILH;Salle multisports;31 AVENUE GEORGES BERNANOS 75005;48.84054; 2.33733;X;
;CENTRE SPORTIF JEAN SARAILH;Salle multisports;31 AVENUE GEORGES BERNANOS 75005;48.84054; 2.33733;X;
;CENTRE SPORTIF JEAN SARAILH;Salle multisports;31 AVENUE GEORGES BERNANOS 75005;48.84054; 2.33733;X;
;CENTRE SPORTIF JEAN SARAILH;Salle multisports;31 AVENUE GEORGES BERNANOS 75005;48.84054; 2.33733;X;
;CENTRE SPORTIF JEAN SARAILH;Salle multisports;31 AVENUE GEORGES BERNANOS 75005;48.84054; 2.33733;X;
;ASSOCIATION SPORTIVE DE LA POLICE DE PARIS;Dojo / Salle d'arts martiaux;4 RUE DE LA MONTAGNE SAINTE GENEVIèVE 75005;48.84951; 2.34854;X;
;GYMNASE LAVOISIER;Salle multisports;10 RUE PIERRE NICOLE 75005;48.8427; 2.33985;X;
;CENTRE SPORTIF POLIVEAU;Plateau EPS/Multisports/city-stades;39 bis RUE POLIVEAU 75005;48.83941; 2.35782;X;
;ASSOCIATION SPORTIVE DE LA POLICE DE PARIS;Dojo / Salle d'arts martiaux;4 RUE DE LA MONTAGNE SAINTE GENEVIèVE 75005;48.84951; 2.34854;X;
;CASERNE MONGE;Salle de musculation/cardiotraining;21 RUE GRACIEUSE 75005;48.8429; 2.35078;X;
;ÉCOLE NORMALE SUPÉRIEURE (rue d'ulm);Salle multisports;45 RUE D'ULM 75005;48.84172; 2.34535;X;
;CENTRE SPORTIF JEAN SARAILH;Salle de danse;31 AVENUE GEORGES BERNANOS 75005;48.84054; 2.33733;X;
;CENTRE SPORTIF JEAN SARAILH;Salle de danse;31 AVENUE GEORGES BERNANOS 75005;48.84054; 2.33733;X;
;UNIVERSITE PARIS III (SORBONNE NOUVELLE);Salle de gymnastique sportive; CENTRE CENSIER 75005;48.84053; 2.35385;X;
;LYCEE LOUIS LE GRAND;Piste d'athlétisme isolée;123 RUE SAINT JACQUES 75005;48.84827; 2.34457;X;
;LYCEE LOUIS LE GRAND;Piste d'athlétisme isolée;123 RUE SAINT JACQUES 75005;48.84827; 2.34457;X;
;GYMNASE LUCIEN GAUDIN;Salle de tennis de table;4 QUAI SAINT BERNARD 75005;48.84698; 2.36049;X;
;GYMNASE LUCIEN GAUDIN;Salle de tennis de table;4 QUAI SAINT BERNARD 75005;48.84698; 2.36049;X;
;GYMNASE AMYOT;Salle de danse;3 RUE AMYOT 75005;48.84344; 2.34773;X;
;GYMNASE DES PATRIARCHES;Salle multisports;6 PLACE BERNARD HALPERN 75005;48.84058; 2.35082;X;
;GYMNASE DES PATRIARCHES;Salle multisports;6 PLACE BERNARD HALPERN 75005;48.84058; 2.35082;X;
;PALESTRA CLUB;Salle de cours collectifs;10 bis RUE DES BOULANGERS 75005;48.84603; 2.35381;X;
;GYMNASE AMYOT;Salle de cours collectifs;3 RUE AMYOT 75005;48.84344; 2.34773;X;
;GYMNASE AMYOT;Salle de danse;3 RUE AMYOT 75005;48.84344; 2.34773;X;
;MUAY THAI FRANCE;Salle de danse;13 RUE MALEBRANCHE 75005;48.84644; 2.34228;X;
;LYCEE NOTRE DAME DES OISEAUX;Salle multisports;12 RUE MICHEL ANGE 75016;48.8472; 2.26351;X;
;LYCEE GERSON;Salle multisports;31 RUE DE LA POMPE 75016;48.8598; 2.26996;X;
;TENNIS NIOX;Court de tennis;14 QUAI SAINT EXUPERY 75016;48.83709; 2.26394;X;
;CENTRE SPORTIF GEO ANDRE;Salle multisports;2 RUE DU COMMANDANT GUILBAUD 75016;48.83927; 2.25246;X;
;TENNIS FRANCOIS DE LABOUCHERE;Court de tennis;92 BOULEVARD FLANDRIN 75016;48.869919; 2.274851;X;
;LYCEE GERSON;Salle multisports;31 RUE DE LA POMPE 75016;48.8598; 2.26996;X;
;ETRIER DAUPHINE;Manège;1 PLACE DU MARECHAL DE LATTRE DE TASIGNY 75016;48.8717; 2.27217;X;
;LYCÉE SAINT JEAN DE PASSY;Salle de gymnastique sportive;72 RUE RAYNOUARD 75016;48.85427; 2.27849;X;
;Lagardère Paris Racing;Bassin sportif de natation;1 CHEMIN DE LA CROIX CATELAN 75016;48.8642; 2.25602;X;
;BOULODROME NIOX;Terrain de pétanque;1 rue du general Malleterre 75016;48.83736; 2.26387;X;
;LYCEE DE L'ASSOMPTION;Salle multisports;6 RUE LUBECK 75016;48.8671; 2.2941;X;
;CITE SCOLAIRE MOLIERE;Salle multisports;71 RUE DU RANELAGH 75016;48.855; 2.27219;X;
;STADE PIERRE DE COUBERTIN;Salle multisports;84 AVENUE GEORGES LAFONT 75016;48.8498; 2.25549;X;
;STADE PIERRE DE COUBERTIN;Salle multisports;84 AVENUE GEORGES LAFONT 75016;48.8498; 2.25549;X;
;STADE SUCHET;Terrain de football;26 AVENUE DU MARECHAL FRANCHET D'ESPEREY 75016;48.8537; 2.26163;X;
;STADE PORTE DE LA MUETTE;Terrain de football;60 BOULEVARD LANNES 75016;48.865189; 2.269561;X;
;CLUB HIPPIQUE DU JARDIN;Carrière; ROUTE DE LA MUETTE 75016;48.8785; 2.25954;X;
;STADE PIERRE DE COUBERTIN;Salle multisports;84 AVENUE GEORGES LAFONT 75016;48.8498; 2.25549;X;
;GYMNASE DES BAUCHES;Salle multisports;10 RUE BAUCHES 75016;48.85576; 2.27446;X;
;LYCEE JEAN BAPTISTE SAY;Salle multisports;11 bis RUE D'AUTEUIL 75016;48.8476; 2.27486;X;
;WAOU CLUB MED GYM AUTEUIL;Salle de danse;11 RUE CHANEZ 75016;48.8468; 2.25956;X;
;TEP JEAN PIERRE WIMILLE;Terrain de football;56 BOULEVARD DE L'AMIRAL BRUIX 75016;48.872863; 2.275526;X;
;LYCEE JEAN BAPTISTE SAY;Salle multisports;11 bis RUE D'AUTEUIL 75016;48.8476; 2.27486;X;
;CENTRE SPORTIF BERTRAND DAUVIN;Dojo / Salle d'arts martiaux;12 RUE RENE BINET 75018;48.89948; 2.34247;X;
;CENTRE D'ANIMATION BINET;Dojo / Salle d'arts martiaux;66 RUE RENE BINET 75018;48.8994; 2.33694;X;
;SALLE DE SPORTS DE BNP PARIBAS;Salle multisports;32 RUE DE CLIGNANCOURT 75018;48.88599; 2.3476;X;
;SALLE DE SPORTS DE BNP PARIBAS;Salle multisports;32 RUE DE CLIGNANCOURT 75018;48.88599; 2.3476;X;
;CENTRE SPORTIF DES FILLETTES;Skate park;54 BOULEVARD NEY 75018;48.900036; 2.365006;X;
;LYCEE BERGSON;Salle multisports;27 RUE EDOUARD PAILLERON 75019;48.8812; 2.3784;X;
;LYCEE BERGSON;Salle de gymnastique sportive;27 RUE EDOUARD PAILLERON 75019;48.8812; 2.3784;X;
;LYCEE BERGSON;Terrain de basket-ball;27 RUE EDOUARD PAILLERON 75019;48.8764; 2.3771;X;
;SALLES DE SPORT CHAUMONT LEPAGE;Salle d'escrime;15 RUE CHAUMONT 75019;48.8806; 2.37137;X;
;AZTECA CLUB;Salle de musculation/cardiotraining;36 RUE DE CRIMEE 75019;48.879; 2.39008;X;
;CENTRE SPORTIF ECOLE ATLAS;Salle multisports;18 RUE DE L'ATLAS 75019;48.8757; 2.37661;X;
;ATELIER CHOREGRAPHIQUE;Salle de danse;19 ALLEE EIDERS 75019;48.894; 2.37923;X;
;COLLEGE EDMOND MICHELET;Plateau EPS/Multisports/city-stades;70 RUE DE L'OURCQ 75019;48.8936; 2.37506;X;
;COLLEGE CHARLES PEGUY;Plateau EPS/Multisports/city-stades;69 AVENUE SIMON BOLIVAR 75019;48.8763; 2.37689;X;
;CENTRE SPORTIF HAUTPOUL;Salle multisports;48 RUE D'HAUTPOUL 75019;48.88474; 2.38786;X;
;COLLEGE EDMOND MICHELET;Salle multisports;70 RUE DE L'OURCQ 75019;48.8936; 2.37506;X;
;GYMNASE CURIAL;Salle multisports;84 RUE CURIAL 75019;48.895; 2.37472;X;
;SALLES DE SPORT CHAUMONT LEPAGE;Dojo / Salle d'arts martiaux;15 RUE CHAUMONT 75019;48.8806; 2.37137;X;
;COLLEGE EDMOND MICHELET;Plateau EPS/Multisports/city-stades;70 RUE DE L'OURCQ 75019;48.8936; 2.37506;X;
;CENTRE SPORTIF MATHIS;Salle multisports;11 RUE MATHIS 75019;48.8908; 2.37497;X;
;LYCEE PROFESSIONNEL ET TECHNIQUE JULES RICHARD;Salle multisports;21 RUE CARDUCCI 75019;48.877515; 2.385552;X;
;ECOLE LUCIEN DE HIRCH;Salle multisports;70 AVENUE SECRETAN 75019;48.8798; 2.37629;X;
;GYMNASE CURIAL;Salle multisports;84 RUE CURIAL 75019;48.895; 2.37472;X;
;TENNIS DES SEPT ARPENTS;Court de tennis; RUE DES SEPTS ARPENTS 75019;48.8898; 2.39862;X;
;TEP JANDELLE;Plateau EPS/Multisports/city-stades;15 CITE JANDELLE 75019;48.8753; 2.37955;X;
;TEP PIERRE REVERDY;Aire de lancer;4 RUE PIERRE REVERDY 75019;48.885507; 2.376157;X;
;CENTRE SPORTIF EDOUARD PAILLERON;Terrain de football;24 RUE EDOUARD PAILLERON 75019;48.8807; 2.37721;X;
;REM GYM;Salle de musculation/cardiotraining;72 RUE DE ROMAINVILLE 75019;48.8773; 2.40344;X;
;CENTRE SPORTIF HAUTPOUL;Aire de lancer;48 RUE D'HAUTPOUL 75019;48.884909; 2.38912;X;
;CENTRE SPORTIF CHAUMONT;Salle multisports;22 AVENUE DE LA PORTE CHAUMONT 75019;48.885795; 2.398976;X;
;CENTRE SPORTIF ECOLE ATLAS;Bassin sportif de natation;18 RUE DE L'ATLAS 75019;48.8757; 2.37661;X;
;CENTRE SPORTIF JULES LADOUMEGUE;Court de tennis; PLACE DE LA PORTE DE PANTIN 75019;48.8937; 2.39717;X;
;CENTRE SPORTIF JULES LADOUMEGUE;Terrain de pétanque; PLACE DE LA PORTE DE PANTIN 75019;48.8906; 2.39754;X;
;LYCEE L'INITIATIVE;Salle multisports;24 RUE BOURET 75019;48.8814; 2.37464;X;
;LYCEE L'INITIATIVE;Salle multisports;24 RUE BOURET 75019;48.8814; 2.37464;X;
;PISCINE GEORGES HERMANT;Bassin sportif de natation;6 RUE DAVID D'ANGER 75019;48.8824; 2.38948;X;
;COLLEGE CLAUDE CHAPPE;Piste d'athlétisme isolée;9 RUE DES ALOUETTES 75019;48.8775; 2.40411;X;
;CENTRE SPORTIF JULES LADOUMEGUE;Terrain de football; PLACE DE LA PORTE DE PANTIN 75019;48.8937; 2.39622;X;
;GYMNASE SIMON BOLIVAR;Salle multisports;69 AVENUE SIMON BOLIVAR 75019;48.8764; 2.37648;X;
;ATELIER CHOREGRAPHIQUE;Salle de danse;19 ALLEE EIDERS 75019;48.894; 2.37923;X;
;CERCLE DE LA FORME BOLIVAR;Salle de danse;108 SIMON BOLIVAR 75019;48.8789; 2.37443;X;
;CERCLE DE LA FORME BOLIVAR;Dojo / Salle d'arts martiaux;108 SIMON BOLIVAR 75019;48.8789; 2.37443;X;
;CENTRE SPORTIF CHAUMONT;Salle multisports;22 AVENUE DE LA PORTE CHAUMONT 75019;48.885795; 2.398976;X;
;GYMNASE SIMON BOLIVAR;Salle multisports;69 AVENUE SIMON BOLIVAR 75019;48.8764; 2.37648;X;
;ENJOY BY FKC;Dojo / Salle d'arts martiaux;36 RUE DE NANTES 75019;48.8928; 2.38049;X;
;COLLEGE SAINT GEORGES;Salle multisports;19 RUE BOURET 75019;48.8815; 2.37419;X;
;CENTRE D'ANIMATION REBEVAL;Dojo / Salle d'arts martiaux;36 RUE REBEVAL 75019;48.8747; 2.37908;X;
;GYMNASE ARCHEREAU;Salle de danse;61 RUE ARCHEREAU 75019;48.8928; 2.37582;X;
;COLLEGE SAINT GEORGES;Salle multisports;19 RUE BOURET 75019;48.8815; 2.37419;X;
;GYMNASE ARCHEREAU;Salle de danse;61 RUE ARCHEREAU 75019;48.8928; 2.37582;X;
;TEP ARCHEREAU;Plateau EPS/Multisports/city-stades;26 RUE ARCHEREAU 75019;48.8905; 2.37371;X;
;COLLEGE G. MELIES;Plateau EPS/Multisports/city-stades;45 RUE DE TANGER 75019;48.8874; 2.37006;X;
;LYCEE L'INITIATIVE;Salle multisports;24 RUE BOURET 75019;48.8814; 2.37464;X;
;LYCEE L'INITIATIVE;Salle multisports;24 RUE BOURET 75019;48.8814; 2.37464;X;
;GYMNASE ARCHEREAU;Salle de cours collectifs;61 RUE ARCHEREAU 75019;48.8928; 2.37582;X;
;CENTRE SPORTIF DES LILAS;Salles polyvalentes / des fêtes / non spécialisées;5 RUE DES LILAS 75019;48.8782; 2.39564;X;
;CENTRE SPORTIF HAUTPOUL;Piste d'athlétisme isolée;48 RUE D'HAUTPOUL 75019;48.884771; 2.38797;X;
;CENTRE SPORTIF DES LILAS;Salles polyvalentes / des fêtes / non spécialisées;5 RUE DES LILAS 75019;48.8782; 2.39564;X;
;GYMNASE ARCHEREAU;Salle de cours collectifs;61 RUE ARCHEREAU 75019;48.8928; 2.37582;X;
;COLLEGE GEORGES ROUAULT;Plateau EPS/Multisports/city-stades;3 RUE DU NOYER DURAND 75019;48.8863; 2.39858;X;
;GYMNASE JEAN JAURES;Salle multisports;87 AVENUE JEAN JAURES 75019;48.885275; 2.379259;X;
;CENTRE SPORTIF EDOUARD PAILLERON;Terrain de basket-ball;24 RUE EDOUARD PAILLERON 75019;48.8807; 2.37721;X;
;COLLEGE GEORGES ROUAULT;Salle multisports;3 RUE DU NOYER DURAND 75019;48.8868; 2.39919;X;
;LYCEE - COLLEGE BETH ANNA;Salle multisports;49 RUE PETIT 75019;48.88521; 2.385;X;
;LYCEE - COLLEGE BETH ANNA;Salle multisports;49 RUE PETIT 75019;48.88521; 2.385;X;
;COLLEGE CHARLES PEGUY;Salle de tennis de table;69 AVENUE SIMON BOLIVAR 75019;48.8763; 2.37689;X;
;LYCEE - COLLEGE BETH ANNA;Salle multisports;49 RUE PETIT 75019;48.88521; 2.385;X;
;TEP BARBANEGRE;Piste d'athlétisme isolée;12 RUE BARBANEGRE 75019;48.8924; 2.39058;X;
;TEP TANDOU;Terrain de handball;16 RUE TANDOU 75019;48.8861; 2.38108;X;
;TEP CURIAL-CAMBRAI;Terrain de basket-ball;102 RUE CURIAL 75019;48.8962; 2.37721;X;
;ESPACE SPORTIF EDOUARD PAILLERON;Salle de musculation/cardiotraining;30 RUE EDOUARD PAILLERON 75019;48.8809; 2.37767;X;
;TEP RUE DE L'OURCQ;Plateau EPS/Multisports/city-stades;83 RUE DE L'OURCQ 75019;48.8882; 2.39411;X;
;ANNEXE COLLEGE LUCIE FAURE;Plateau EPS/Multisports/city-stades;10 RUE CRISTINO GARCIA 75020;48.8544; 2.41444;X;
;FSKLM;Salle de musculation/cardiotraining;46 RUE DES RIGOLES 75020;48.8729; 2.39188;X;
;MJC LES HAUTS DE BELLEVILLE;Salle multisports;43 RUE BORREGO 75020;48.8732; 2.41175;X;
;MJC LES HAUTS DE BELLEVILLE;Salle multisports;43 RUE BORREGO 75020;48.8732; 2.41175;X;
;CENTRE SPORTIF DAVOUT;Plateau EPS/Multisports/city-stades;134 BOULEVARD DAVOUT 75020;48.8615; 2.40954;X;
;CITE SCOLAIRE HELENE BOUCHER;Salle de musculation/cardiotraining;75 COURS DE VINCENNES 75020;48.8477; 2.40712;X;
;GYM STUDIO;Salle de cours collectifs;9 RUE PIXERECOURT 75020;48.8712; 2.39555;X;
;CENTRE SPORTIF LOUIS LUMIERE;Salle multisports;30 RUE LOUIS LUMIERE 75020;48.858; 2.41177;X;
;GYMNASE GERARD HENRI;Salle multisports;20 RUE MONTE CRISTO 75020;48.8555; 2.39792;X;
;TENNIS CLUB LUTECE;Court de tennis;49 RUE PAUL MAURICE 75020;48.8744; 2.41206;X;
;STADE DE LA PORTE DES LILAS;Court de tennis;27 RUE DES FRERES FLAVIEN 75020;48.8757; 2.41157;X;
;CLUB MED GYM PARIS 20EME;Salle de musculation/cardiotraining;63 RUE DE BAGNOLET 75020;48.8574; 2.39914;X;
;ETABLISSEMENT SAINTE LOUISE;Salle multisports;73 RUE DE LA MARE 75020;48.8731; 2.38917;X;
;POINT FORME PLUS;Salle de cours collectifs;138 RUE DE BAGNOLET 75020;48.8595; 2.40617;X;
;CENTRE SPORTIF MARYSE HILSZ;Salle multisports;34 RUE MARYSE HILSZ 75020;48.851419; 2.412975;X;
;GYMNASE BRETONNEAU;Salle multisports;7 RUE BRETONNEAU 75020;48.8759; 2.40304;X;
;CENTRE SPORTIF DES DOCTEURS DEJERINE;Terrain de football;34 RUE DES DOCTEURS DEJERINE 75020;48.8571; 2.41258;X;
;CENTRE SPORTIF MARYSE HILSZ;Terrain de basket-ball;34 RUE MARYSE HILSZ 75020;48.852707; 2.413796;X;
;MJC LES HAUTS DE BELLEVILLE;Dojo / Salle d'arts martiaux;43 RUE BORREGO 75020;48.8732; 2.41175;X;
;GYMNASE BRETONNEAU;Salle multisports;7 RUE BRETONNEAU 75020;48.8759; 2.40304;X;
;CLUB MED GYM PARIS 20EME;Salle de cours collectifs;63 RUE DE BAGNOLET 75020;48.8574; 2.39914;X;
;MJC LES HAUTS DE BELLEVILLE;Dojo / Salle d'arts martiaux;43 RUE BORREGO 75020;48.8732; 2.41175;X;
;TEP DES HAIES;Plateau EPS/Multisports/city-stades;47 RUE DES HAIES 75020;48.85374; 2.40158;X;
;GYMNASE DE LA BIDASSOA;Salle multisports;25 RUE DE LA BIDASSOA 75020;48.8665; 2.39323;X;
;CENTRE SPORTIF LOUIS LUMIERE;Salle de danse;30 RUE LOUIS LUMIERE 75020;48.8589; 2.41207;X;
;CENTRE SPORTIF LOUIS LUMIERE;Salle de danse;30 RUE LOUIS LUMIERE 75020;48.8589; 2.41207;X;
;COLLEGE FRANCOISE DOLTO;Salle multisports;354 RUE DES PYRENEES 75020;48.8729; 2.39084;X;
;BASSIN ECOLE LOUIS LUMIERE;Bassin sportif de natation;34 RUE LOUIS LUMIERE 75020;48.8589; 2.4117;X;
;BOULODROME LUCIEN LAMBEAU;Terrain de pétanque; RUE LUCIEN LAMBEAU 75020;48.8573; 2.41188;X;
;LYCEE COLLEGE MAURICE RAVEL;Plateau EPS/Multisports/city-stades;89 COURS DE VINCENNES 75020;48.8476; 2.40824;X;
;CENTRE SPORTIF BULL;Dojo / Salle d'arts martiaux;240 RUE DES PYRENEES 75020;48.867787; 2.396374;X;
;CENTRE D'ANIMATION LES AMANDIERS;Salle de danse;110 RUE DES AMANDIERS 75020;48.868152; 2.388624;X;
;CENTRE D'ANIMATION LES AMANDIERS;Salle de danse;110 RUE DES AMANDIERS 75020;48.868152; 2.388624;X;
;LYCEE COLLEGE MAURICE RAVEL;Salle multisports;89 COURS DE VINCENNES 75020;48.8476; 2.40824;X;
;CENTRE SPORTIF LOUIS LUMIERE;Dojo / Salle d'arts martiaux;30 RUE LOUIS LUMIERE 75020;48.8589; 2.41206;X;
;INTERNATIONAL MARTIAL CLUB;Dojo / Salle d'arts martiaux;93 RUE PELLEPORT 75020;48.8699; 2.39978;X;
;LYCEE COLLEGE MAURICE RAVEL;Salle multisports;89 COURS DE VINCENNES 75020;48.8476; 2.40824;X;
;LYCEE COLLEGE MAURICE RAVEL;Plateau EPS/Multisports/city-stades;89 COURS DE VINCENNES 75020;48.8476; 2.40824;X;
;LYCEE COLLEGE MAURICE RAVEL;Salle multisports;89 COURS DE VINCENNES 75020;48.8476; 2.40824;X;
;INTERNATIONAL MARTIAL CLUB;Dojo / Salle d'arts martiaux;93 RUE PELLEPORT 75020;48.8699; 2.39978;X;
;TEP DES HAIES;Aire de saut;47 RUE DES HAIES 75020;48.85358; 2.40174;X;
;CENTRE SPORTIF LOUIS LUMIERE;Salle multisports;30 RUE LOUIS LUMIERE 75020;48.858; 2.41177;X;
;GYMNASE PELLEPORT;Dojo / Salle d'arts martiaux;162 RUE PELLEPORT 75020;48.8729; 2.39791;X;
;GYMNASE BRETONNEAU;Salle de gymnastique sportive;7 RUE BRETONNEAU 75020;48.8759; 2.40304;X;
;CENTRE SPORTIF BULL;Salles polyvalentes / des fêtes / non spécialisées;240 RUE DES PYRENEES 75020;48.867787; 2.396374;X;
;GYMNASE BRETONNEAU;Salle de gymnastique sportive;7 RUE BRETONNEAU 75020;48.8759; 2.40304;X;
;GYMNASE BRETONNEAU;Salle de gymnastique sportive;7 RUE BRETONNEAU 75020;48.8759; 2.40304;X;
;COLLEGE ROBERT DOISNEAU;Salle multisports;51 RUE DES PANOYAUX 75020;48.8695; 2.38798;X;
;SQUARE LEON FRAPIE;Terrain de handball; RUE LéON FRAPIé 75020;48.8728; 2.41124;X;
;COLLEGE LEON GAMBETTA;Salle multisports;149 AVENUE GAMBETTA 75020;48.86983; 2.40274;X;
;SQUARE LEON FRAPIE;Terrain de basket-ball; RUE LéON FRAPIé 75020;48.8728; 2.41124;X;
;BOULODROME DU DOCTEUR GLEY;Terrain de pétanque;24 AVENUE DU DOCTEUR GLEY 75020;48.877; 2.41083;X;
;COLLEGE ROBERT DOISNEAU;Plateau EPS/Multisports/city-stades;51 RUE DES PANOYAUX 75020;48.8695; 2.38798;X;
;CITE SCOLAIRE HELENE BOUCHER;Plateau EPS/Multisports/city-stades;75 COURS DE VINCENNES 75020;48.8477; 2.40712;X;
;LYCEE COLLEGE MAURICE RAVEL;Piste d'athlétisme isolée;89 COURS DE VINCENNES 75020;48.8476; 2.40824;X;
;CENTRE SPORTIF MARYSE HILSZ;Stade d’athlétisme;34 RUE MARYSE HILSZ 75020;48.85185; 2.414056;X;
;COLLEGE SAINT BLAISE;Plateau EPS/Multisports/city-stades;4 RUE GALLERON 75020;48.8594; 2.40496;X;
;COLLEGE SAINT BLAISE;Plateau EPS/Multisports/city-stades;4 RUE GALLERON 75020;48.8594; 2.40496;X;
;SQUARE REPINE;Plateau EPS/Multisports/city-stades;4 RUE FELIX HUGUENET 75020;48.8485; 2.40457;X;
;COLLEGE SAINT BLAISE;Plateau EPS/Multisports/city-stades;4 RUE GALLERON 75020;48.8594; 2.40496;X;
;COLLEGE LEON GAMBETTA;Salle multisports;149 AVENUE GAMBETTA 75020;48.86983; 2.40274;X;
;LYCEE TECHNIQUE M. NADAUD;Salle multisports;23 RUE DE LA BIDASSOA 75020;48.8661; 2.39384;X;
;COLLEGE ROBERT DOISNEAU;Plateau EPS/Multisports/city-stades;51 RUE DES PANOYAUX 75020;48.8695; 2.38798;X;
;DOJO TENSHIN;Dojo / Salle d'arts martiaux;120 RUE DES GRANDS CHAMPS 75020;48.8712; 2.40798;X;
;GYMNASE MENILMONTANT;Salle de boxe;114 RUE DE MENILMONTANT 75020;48.8699; 2.39416;X;
;CENTRE D'ANIMATION LOUIS LUMIERE-ANNEXE;Dojo / Salle d'arts martiaux;26 RUE SERPOLLET 75020;48.861; 2.41297;X;
;CENTRE D'ANIMATION LOUIS LUMIERE-ANNEXE;Dojo / Salle d'arts martiaux;26 RUE SERPOLLET 75020;48.861; 2.41297;X;
;COMPLEXE SPORTIF ALFRED NAKACHE;Dojo / Salle d'arts martiaux;04-déc. RUE DENOYEZ 75020;48.871245; 2.37875;X;
;CENTRE SPORTIF MAX ROUSIE;Dojo / Salle d'arts martiaux;28 RUE ANDRE BRECHET 75017;48.8992; 2.32529;X;
;LYCÉE HONORE DE BALZAC;Salle multisports;118 BOULEVARD BESSIERES 75017;48.8948; 2.31366;X;
;LYCEE SAINTE URSULE - LOUISE DE BETTIGNIES;Salle multisports;25 RUE DAUBIGNY 75017;48.885655; 2.307599;X;
;CENTRE SPORTIF COURCELLES;Salle multisports;229 RUE DE COURCELLES 75017;48.8894; 2.29231;X;
;CENTRE SPORTIF LÉON BIANCOTTO;Salle multisports;6 AVENUE DE LA PORTE DE CLICHY 75017;48.8962; 2.3112;X;
;LYCÉE HONORE DE BALZAC;Court de tennis;118 BOULEVARD BESSIERES 75017;48.8948; 2.31366;X;
;LYCÉE HONORE DE BALZAC;Salle multisports;118 BOULEVARD BESSIERES 75017;48.8948; 2.31366;X;
;CENTRE SPORTIF LÉON BIANCOTTO;Aire de lancer;6 AVENUE DE LA PORTE DE CLICHY 75017;48.8962; 2.3112;X;
;CLUB MED GYM MAILLOT;Salle de musculation/cardiotraining;17 RUE DU DEBARCADERE 75017;48.8779694; 2.2854593;X;
;CENTRE SPORTIF MAX ROUSIE;Salle de gymnastique sportive;28 RUE ANDRE BRECHET 75017;48.8992; 2.32529;X;
;CENTRE SPORTIF MAX ROUSIE;Salle de gymnastique sportive;28 RUE ANDRE BRECHET 75017;48.8992; 2.32529;X;
;GYM ET YOGA - STE PIERRE DIDIER;Salle de danse;8 PLACE BOULNOIS 75017;48.8792; 2.29584;X;
;LYCEE CARNOT;Salle multisports;145 BOULEVARD MALESHERBES 75017;48.8946; 2.3079;X;
;COLLEGE SAINTE URSULE - LOUISE DE BETTIGNIES;Salle multisports;102 BOULEVARD PEREIRE 75017;48.88675; 2.299;X;
;CLUB MED GYM MONCEAU;Salle de culturisme;26 RUE CHAZELLES 75017;48.8807; 2.30589;X;
;VIT'HALLES BATIGNOLLES;Salle de cours collectifs;32 BOULEVARD DES BATIGNOLLES 75017;48.883022; 2.324192;X;
;GYMNASE FRAGONARD;Salle multisports;10 RUE FRAGONARD 75017;48.8943; 2.31582;X;
;LYCEE CARNOT;Salle multisports;145 BOULEVARD MALESHERBES 75017;48.8946; 2.3079;X;
;COLLEGE PIERRE DE RONSARD;Salle multisports;140 AVENUE DE WAGRAM 75017;48.885929; 2.304071;X;
;COLLEGE PIERRE DE RONSARD;Salle multisports;140 AVENUE DE WAGRAM 75017;48.885929; 2.304071;X;
;TEP LEMERCIER;Piste d'athlétisme isolée;108 QUATER RUE LEMERCIER 75017;48.89057; 2.318434;X;
;STADE PORTE D'ASNIÈRES;Piste d'athlétisme isolée;6 AVENUE BRUNETIERE 75017;48.8913; 2.31211;X;
;COLLEGE PIERRE DE RONSARD;Salle multisports;140 AVENUE DE WAGRAM 75017;48.885929; 2.304071;X;
;LYCEE CARNOT;Salle multisports;145 BOULEVARD MALESHERBES 75017;48.8946; 2.3079;X;
;WAOU CLUB MED GYM PORTE MAILLOT;Salle de danse;1 place du général Koenig 75017;48.8807159; 2.2850221;X;
;SALLES DE SPORT BERNARD LAFAY;Salle de gymnastique sportive;26 RUE BOULAY 75017;48.894592; 2.318284;X;
;SALLES DE SPORT BERNARD LAFAY;Salle de gymnastique sportive;26 RUE BOULAY 75017;48.894592; 2.318284;X;
;COLLEGE ANDRE MALRAUX;Salle multisports;5 bis RUE SAINT FERDINAND 75017;48.8789; 2.29082;X;
;CENTRE SPORTIF LÉON BIANCOTTO;Structure Artificielle d'Escalade;6 AVENUE DE LA PORTE DE CLICHY 75017;48.8962; 2.3112;X;
;LYCÉE HONORE DE BALZAC;Bassin sportif de natation;118 BOULEVARD BESSIERES 75017;48.8948; 2.31366;X;
;LYCÉE HONORE DE BALZAC;Salle multisports;118 BOULEVARD BESSIERES 75017;48.8948; 2.31366;X;
;SKATE PARK DES BATIGNOLLES;Skate park; RUE CARDINET 75017;48.8881; 2.31545;X;
;CENTRE SPORTIF REIMS;Court de tennis;224 RUE DE COURCELLES 75017;48.8892; 2.2959;X;
;SALLES DE SPORT BERNARD LAFAY;Dojo / Salle d'arts martiaux;26 RUE BOULAY 75017;48.894592; 2.318284;X;
;CENTRE SPORTIF REIMS;Salle de boxe;224 RUE DE COURCELLES 75017;48.8887; 2.29476;X;
;COLLEGE ANDRE MALRAUX;Salle multisports;5 bis RUE SAINT FERDINAND 75017;48.8789; 2.29082;X;
;LE SPORTING;Dojo / Salle d'arts martiaux;113 RUE CARDINET 75017;48.8856; 2.311607;X;
;CENTRE D'ETUDE D'ACTION SOCIALE ET CULTURELLE;Salle de danse;23 RUE DE LA SOURDIERE 75001;48.86656; 2.33264;X;
;GYMNASE SUZANNE BERLIOUX;Salle multisports;117 RUE RAMBUTEAU 75001;48.86181; 2.34679;X;
;CENTRE D'ETUDE D'ACTION SOCIALE ET CULTURELLE;Salle de danse;23 RUE DE LA SOURDIERE 75001;48.86656; 2.33264;X;
;GYMNASE SUZANNE BERLIOUX;Salle multisports;117 RUE RAMBUTEAU 75001;48.86181; 2.34679;X;
;GYMNASE SUZANNE BERLIOUX;Salle multisports;117 RUE RAMBUTEAU 75001;48.86181; 2.34679;X;
;CENTRE D'ETUDE D'ACTION SOCIALE ET CULTURELLE;Salle de danse;23 RUE DE LA SOURDIERE 75001;48.86656; 2.33264;X;
;GYMNASE SUZANNE BERLIOUX;Salle multisports;117 RUE RAMBUTEAU 75001;48.86181; 2.34679;X;
;CENTRE D'ETUDE D'ACTION SOCIALE ET CULTURELLE;Salle de danse;23 RUE DE LA SOURDIERE 75001;48.86656; 2.33264;X;
;RITZ HEALTH CLUB;Bassin ludique de natation;17 PLACE VENDOME 75001;48.86797; 2.32891;X;
;GYMNASE SUZANNE BERLIOUX;Salles polyvalentes / des fêtes / non spécialisées;117 RUE RAMBUTEAU 75001;48.86181; 2.34679;X;
;GYMNASE SUZANNE BERLIOUX;Salles polyvalentes / des fêtes / non spécialisées;117 RUE RAMBUTEAU 75001;48.86181; 2.34679;X;
;GYMNASE SUZANNE BERLIOUX;Salles polyvalentes / des fêtes / non spécialisées;117 RUE RAMBUTEAU 75001;48.86181; 2.34679;X;
;PISCINE SUZANNE BERLIOUX;Bassin sportif de natation;10 PLACE DE LA ROTONDE 75001;48.86181; 2.34679;X;
;CLUB MED GYM PALAIS ROYAL;Salle de musculation/cardiotraining;147 bis RUE SAINT HONORE 75001;48.86219; 2.33877;X;
;CLUB MED GYM PALAIS ROYAL;Salle de cours collectifs;147 bis RUE SAINT HONORE 75001;48.86219; 2.33877;X;
;CENTRE D'ETUDE D'ACTION SOCIALE ET CULTURELLE;Salle de danse;23 RUE DE LA SOURDIERE 75001;48.86656; 2.33264;X;
;BNP PARIBAS;Salle d'escrime;3 RUE LOUIS LE GRAND 75002;48.86824; 2.33196;X;
;CENTRE SPORTIF JEAN DAME;Salle multisports;17 RUE LéOPOLD BELLAN 75002;48.86658; 2.34527;X;
;CENTRE SPORTIF JEAN DAME;Salle multisports;17 RUE LéOPOLD BELLAN 75002;48.86658; 2.34527;X;
;ASSOCIATION SPORTIVE DE LA BANQUE DE FRANCE;Salle multisports;4 RUE MARSOLLIER 75002;48.86763; 2.33481;X;
;MAGENIA - ECOLE ELLA JAROSZEWICZ;Salle de danse;16 RUE SAINT MARC 75002;48.87043; 2.34052;X;
;CENTRE SPORTIF JEAN DAME;Bassin sportif de natation;17 RUE LéOPOLD BELLAN 75002;48.86658; 2.34527;X;
;CENTRE SPORTIF JEAN DAME;Salle de gymnastique sportive;17 RUE LéOPOLD BELLAN 75002;48.86658; 2.34527;X;
;CENTRE SPORTIF JEAN DAME;Salle de gymnastique sportive;17 RUE LéOPOLD BELLAN 75002;48.86658; 2.34527;X;
;CENTRE SPORTIF JEAN DAME;Salle de boxe;17 RUE LéOPOLD BELLAN 75002;48.86658; 2.34527;X;
;CENTRE SPORTIF JEAN DAME;Salle de gymnastique sportive;17 RUE LéOPOLD BELLAN 75002;48.86658; 2.34527;X;
;ASSOCIATION SPORTIVE DE LA BANQUE DE FRANCE;Salle de tennis de table;4 RUE MARSOLLIER 75002;48.86763; 2.33481;X;
;CENTRE SPORTIF JEAN DAME;Salle de gymnastique sportive;17 RUE LéOPOLD BELLAN 75002;48.86658; 2.34527;X;
;L'USINE;Salle de musculation/cardiotraining;8 rue de la Michodière 75002;48.86931; 2.33453;X;
;L'USINE;Salle de musculation/cardiotraining;8 rue de la Michodière 75002;48.86931; 2.33453;X;
;ECOLE BERANGER;Salle multisports;3 RUE BERANGER 75003;48.86485; 2.36454;X;
;ECOLE BERANGER;Salle multisports;3 RUE BERANGER 75003;48.86485; 2.36454;X;
;ECOLE BERANGER;Salle multisports;3 RUE BERANGER 75003;48.86485; 2.36454;X;
;ECOLE SAINT MARTIN;Salle multisports;211 RUE SAINT MARTIN 75003;48.86366; 2.35265;X;
;ECOLE SAINT MARTIN;Salle multisports;211 RUE SAINT MARTIN 75003;48.86366; 2.35265;X;
;CARREAU DU TEMPLE;Court de tennis;2 RUE PERREE 75003;48.86397; 2.36208;X;
;GYMNASE MICHEL LE COMTE;Salle multisports;14 RUE MICHEL LE COMTE 75003;48.86214; 2.35638;X;
;CARREAU DU TEMPLE;Court de tennis;2 RUE PERREE 75003;48.86397; 2.36208;X;
;LYCEE TURGOT;Salle multisports;69 RUE DE TURBIGO 75003;48.86637; 2.35871;X;
;COLLEGE VICTOR HUGO (bis);Salle multisports;11 RUE BARBETTE 75003;48.85893; 2.36054;X;
;LYCEE VICTOR HUGO;Salle multisports;27 RUE SEVIGNE 75003;48.85749; 2.36318;X;
;COLLEGE VICTOR HUGO (bis);Salle multisports;11 RUE BARBETTE 75003;48.85893; 2.36054;X;
;LYCEE CHARLEMAGNE;Salle multisports;14 RUE CHARLEMAGNE 75004;48.85419; 2.36033;X;
;LYCEE CHARLEMAGNE;Salle multisports;14 RUE CHARLEMAGNE 75004;48.85419; 2.36033;X;
;LYCEE CHARLEMAGNE;Salle multisports;14 RUE CHARLEMAGNE 75004;48.85419; 2.36033;X;
;TEP NEUVE SAINT PIERRE;Plateau EPS/Multisports/city-stades;5 RUE NEUVE ST PIERRE 75004;48.85311; 2.36316;X;
;ECOLE DES FRANCS BOURGEOIS;Plateau EPS/Multisports/city-stades;21 RUE SAINT ANTOINE 75004;48.8549; 2.36039;X;
;CENTRE SPORTIF SAINT MERRI;Bassin sportif de natation;16 RUE DU RENARD 75004;48.85942; 2.35269;X;
;CENTRE SPORTIF SAINT MERRI;Bassin sportif de natation;16 RUE DU RENARD 75004;48.85942; 2.35269;X;
;ECOLE DES FRANCS BOURGEOIS;Salles polyvalentes / des fêtes / non spécialisées;21 RUE SAINT ANTOINE 75004;48.85516; 2.36032;X;
;ECOLE DES FRANCS BOURGEOIS;Salles polyvalentes / des fêtes / non spécialisées;21 RUE SAINT ANTOINE 75004;48.85516; 2.36032;X;
;COLLEGE FRANCOIS COUPERIN;Plateau EPS/Multisports/city-stades;2 ALLEE DES JUSTES 75004;48.8554; 2.35654;X;
;LYCEE SOPHIE GERMAIN;Plateau EPS/Multisports/city-stades;9 RUE JOUY 75004;48.8549; 2.35816;X;
;CENTRE SPORTIF SAINT MERRI;Salle multisports;16 RUE DU RENARD 75004;48.85942; 2.35269;X;
;CENTRE SPORTIF SAINT MERRI;Salle multisports;16 RUE DU RENARD 75004;48.85942; 2.35269;X;
;COLLEGE FRANCOIS COUPERIN;Plateau EPS/Multisports/city-stades;2 ALLEE DES JUSTES 75004;48.8554; 2.35654;X;
;TEP JARDINS SAINT PAUL;Terrain de basket-ball;9 RUE CHARLEMAGNE 75004;48.8532; 2.36016;X;
;LYCEE SOPHIE GERMAIN;Plateau EPS/Multisports/city-stades;9 RUE JOUY 75004;48.85464; 2.35822;X;
;CENTRE SPORTIF DES BLANCS MANTEAUX;Salle de danse;48 RUE VIEILLE DU TEMPLE 75004;48.85829; 2.35835;X;
;CENTRE SPORTIF DES BLANCS MANTEAUX;Salle multisports;48 RUE VIEILLE DU TEMPLE 75004;48.85829; 2.35835;X;
;CENTRE SPORTIF DES BLANCS MANTEAUX;Salle multisports;48 RUE VIEILLE DU TEMPLE 75004;48.85829; 2.35835;X;
;CENTRE SPORTIF DES BLANCS MANTEAUX;Salle multisports;48 RUE VIEILLE DU TEMPLE 75004;48.85829; 2.35835;X;
;CENTRE SPORTIF DES BLANCS MANTEAUX;Salle multisports;48 RUE VIEILLE DU TEMPLE 75004;48.85829; 2.35835;X;
;CENTRE DE DANSE DU MARAIS;Salle de danse;41 RUE DU TEMPLE 75004;48.85971; 2.35351;X;
;CENTRE SPORTIF JEAN SARAILH;Salle multisports;31 AVENUE GEORGES BERNANOS 75005;48.84054; 2.33733;X;
;CLUB QUARTIER LATIN;Bassin sportif de natation;19 RUE DE PONTOISE 75005;48.84942; 2.35158;X;
;GYMNASE ORTOLAN;Salle multisports;18 RUE ORTOLAN 75005;48.84273; 2.35014;X;
;CENTRE SPORTIF JEAN SARAILH;Salle de musculation/cardiotraining;31 AVENUE GEORGES BERNANOS 75005;48.84054; 2.33733;X;
;UNIVERSITÉ PARIS VI;Salle de gymnastique sportive;4 PLACE DE JUSSIEU 75005;48.84786; 2.35818;X;
;INSTITUT NATIONAL DES JEUNES SOURDS;Salle multisports;254 RUE SAINT JACQUES 75005;48.84309; 2.34047;X;
;INSTITUT NATIONAL DES JEUNES SOURDS;Salle multisports;254 RUE SAINT JACQUES 75005;48.84309; 2.34047;X;
;CASERNE MONGE;Salle d'escrime;21 RUE GRACIEUSE 75005;48.8429; 2.35078;X;
;CENTRE SPORTIF JEAN SARAILH;Salle multisports;31 AVENUE GEORGES BERNANOS 75005;48.84054; 2.33733;X;
;CENTRE SPORTIF JEAN SARAILH;Salle multisports;31 AVENUE GEORGES BERNANOS 75005;48.84054; 2.33733;X;
;ÉCOLE NORMALE SUPÉRIEURE;Court de tennis;24 RUE LHOMOND 75005;48.8435; 2.34594;X;
;CENTRE SPORTIF POLIVEAU;Salle multisports;39 bis RUE POLIVEAU 75005;48.83958; 2.35773;X;
;CENTRE SPORTIF JEAN SARAILH;Salle multisports;31 AVENUE GEORGES BERNANOS 75005;48.84054; 2.33733;X;
;GYMNASE LAVOISIER;Salle multisports;10 RUE PIERRE NICOLE 75005;48.8427; 2.33985;X;
;UNIVERSITÉ PARIS VI;Salle de musculation/cardiotraining;4 PLACE DE JUSSIEU 75005;48.84786; 2.35818;X;
;GYMNASE LAVOISIER;Salle multisports;10 RUE PIERRE NICOLE 75005;48.8427; 2.33985;X;
;LYCEE LOUIS LE GRAND;Salle multisports;123 RUE SAINT JACQUES 75005;48.8479; 2.34469;X;
;CENTRE SPORTIF POLIVEAU;Plateau EPS/Multisports/city-stades;39 bis RUE POLIVEAU 75005;48.83941; 2.35782;X;
;UNIVERSITÉ PARIS VI;Salle de danse;4 PLACE DE JUSSIEU 75005;48.84786; 2.35818;X;
;MUAY THAI FRANCE;Salle de danse;13 RUE MALEBRANCHE 75005;48.84644; 2.34228;X;
;UNIVERSITÉ PARIS VI;Salle d'escrime;4 PLACE DE JUSSIEU 75005;48.84786; 2.35818;X;
;GYMNASE LUCIEN GAUDIN;Salle d'escrime;4 QUAI SAINT BERNARD 75005;48.84698; 2.36049;X;
;LYCEE LOUIS LE GRAND;Salle multisports;123 RUE SAINT JACQUES 75005;48.8479; 2.34469;X;
;ÉCOLE NORMALE SUPÉRIEURE (rue d'ulm);Salle multisports;45 RUE D'ULM 75005;48.84172; 2.34535;X;
;GYMNASE LUCIEN GAUDIN;Pas de tir à l'arc;4 QUAI SAINT BERNARD 75005;48.84698; 2.36049;X;
;CLUB JEAN DE BEAUVAIS;Salle de musculation/cardiotraining;5 RUE JEAN DE BEAUVAIS 75005;48.84928; 2.34628;X;
;GYMNASE AMYOT;Salle de danse;3 RUE AMYOT 75005;48.84344; 2.34773;X;
;CLUB JEAN DE BEAUVAIS;Salle de musculation/cardiotraining;5 RUE JEAN DE BEAUVAIS 75005;48.84928; 2.34628;X;
;UNIVERSITÉ PARIS VI;Dojo / Salle d'arts martiaux;4 PLACE DE JUSSIEU 75005;48.84786; 2.35818;X;
;GYMNASE DES PATRIARCHES;Salle multisports;6 PLACE BERNARD HALPERN 75005;48.84058; 2.35082;X;
;LYCEE LOUIS LE GRAND;Plateau EPS/Multisports/city-stades;123 RUE SAINT JACQUES 75005;48.84752; 2.3445;X;
;UNIVERSITE PARIS III (SORBONNE NOUVELLE);Salle de gymnastique sportive; CENTRE CENSIER 75005;48.84053; 2.35385;X;
;CASERNE MONGE;Dojo / Salle d'arts martiaux;21 RUE GRACIEUSE 75005;48.8429; 2.35078;X;
;CLUB JEAN DE BEAUVAIS;Salles polyvalentes / des fêtes / non spécialisées;5 RUE JEAN DE BEAUVAIS 75005;48.84928; 2.34628;X;
;CASERNE MONGE;Dojo / Salle d'arts martiaux;21 RUE GRACIEUSE 75005;48.8429; 2.35078;X;
;LYCÉE HENRI IV;Plateau EPS/Multisports/city-stades;23 RUE CLOVIS 75005;48.84517; 2.34798;X;
;STADE PERSHING;Stade d’athlétisme; AVENUE DU TREMBLAY 75012;48.83016; 2.45607;X;
;CENTRE SPORTIF PAUL VALÉRY;Stade d’athlétisme;15 RUE DE LA NOUVELLE CALEDONIE 75012;48.83917; 2.41146;X;
;PLAINE DE JEUX POLYGONE;Aire de saut;1 ROUTE DE LA FALUERE 75012;48.83209; 2.44247;X;
;VIT'HALLES NATION;Salle de musculation/cardiotraining;164 BOULEVARD DIDEROT 75012;48.84787; 2.39262;X;
;VIT'HALLES NATION;Salle de musculation/cardiotraining;164 BOULEVARD DIDEROT 75012;48.84787; 2.39262;X;
;PLAINE DE JEUX POLYGONE;Terrain de rugby;1 ROUTE DE LA FALUERE 75012;48.83013; 2.44217;X;
;PALAIS OMNISPORTS - PARIS BERCY;Salle multisports;8 BOULEVARD DE BERCY 75012;48.8391; 2.37949;X;
;CENTRE SPORTIF CARNOT;Aire de lancer;26 BOULEVARD CARNOT 75012;48.84267; 2.41177;X;
;PALAIS OMNISPORTS - PARIS BERCY;Salle multisports;8 BOULEVARD DE BERCY 75012;48.8391; 2.37949;X;
;PALAIS OMNISPORTS - PARIS BERCY;Aire de sports de glace sportive;8 BOULEVARD DE BERCY 75012;48.8391; 2.37949;X;
;BAYARD CLUB UCPA;Manège; AVENUE DU POLYGONE 75012;48.83486; 2.43179;X;
;GYMNASE BERCY A.S.P.T.T;Salle de tennis de table;242 RUE DE BERCY 75012;48.84733; 2.36879;X;
;PALAIS OMNISPORTS - PARIS BERCY;Salle multisports;8 BOULEVARD DE BERCY 75012;48.8391; 2.37949;X;
;CENTRE SPORTIF LÉON MOTTOT;Aire de saut;17 CITE MOYNET 75012;48.84463; 2.38675;X;
;STADE PERSHING;Terrain de rugby; AVENUE DU TREMBLAY 75012;48.82776; 2.4598;X;
;STADE LEON BONVOISIN;Terrain de rugby; ROUTE DE LA PYRAMIDE 75012;48.83668; 2.43943;X;
;GYMNASE REUILLY;Salle multisports;43 allée VIVALDI 75012;48.84156; 2.39128;X;
;GYMNASE REUILLY;Salle multisports;43 allée VIVALDI 75012;48.84156; 2.39128;X;
;INSEP;Court de tennis;11 AVENUE DU TREMBLAY 75012;48.83219; 2.450236;X;
;INSEP;Salle d'escrime;11 AVENUE DU TREMBLAY 75012;48.83099; 2.452408;X;
;INSEP;Salle de musculation/cardiotraining;11 AVENUE DU TREMBLAY 75012;48.83099; 2.452408;X;
;INSEP;Terrain de hockey sur gazon;11 AVENUE DU TREMBLAY 75012;48.831069; 2.45363;X;
;INSEP;Terrain de football;11 AVENUE DU TREMBLAY 75012;48.831494; 2.454252;X;
;SKATE PARK DE BERCY;Skate park;1 BOULEVARD DE BERCY 75012;48.837054; 2.378912;X;
;COLLEGE GEORGES BRAQUE;Plateau EPS/Multisports/city-stades;95 RUE BRILLAT SAVARIN 75013;48.82473; 2.34229;X;
;CITE SCOLAIRE RODIN;Plateau EPS/Multisports/city-stades;19 RUE CORVISART 75013;48.83243; 2.34827;X;
;GYMNASE MARCEL CERDAN;Salle multisports;5 bis RUE EUGENE OUDINE 75013;48.82595; 2.37612;X;
;STADE CHARLETY;Salle de musculation/cardiotraining;99 BOULEVARD KELLERMANN 75013;48.81813; 2.34531;X;
;JEUX DE BOULES;Terrain de pétanque;120 BD VINCENT AURIOL 75013;48.83336; 2.3629;X;
;LYCEE COLLEGE CLAUDE MONET;Salle de danse;1 RUE DU DOCTEUR MAGNAN 75013;48.82703; 2.36242;X;
;STADE CHARLETY;Court de tennis;99 BOULEVARD KELLERMANN 75013;48.81701; 2.34718;X;
;CENTRE SPORTIF CHÂTEAU DES RENTIERS;Salle multisports;184 RUE DU CHÂTEAU DES RENTIERS 75013;48.83058; 2.363;X;
;TEP DES CORDELIERES;Plateau EPS/Multisports/city-stades;35 RUE DES CORDELIERES 75013;48.8331; 2.34878;X;
;CENTRE SPORTIF CHÂTEAU DES RENTIERS;Salle multisports;184 RUE DU CHÂTEAU DES RENTIERS 75013;48.83058; 2.363;X;
;COLLEGE EVARISTE GALOIS;Plateau EPS/Multisports/city-stades;11 RUE DU DOCTEUR BOURNEVILLE 75013;48.81829; 2.35766;X;
;CENTRE SPORTIF CHÂTEAU DES RENTIERS;Salle multisports;184 RUE DU CHÂTEAU DES RENTIERS 75013;48.83058; 2.363;X;
;COLLEGE EVARISTE GALOIS;Plateau EPS/Multisports/city-stades;11 RUE DU DOCTEUR BOURNEVILLE 75013;48.81829; 2.35766;X;
;ASSOCIATION LE JARDIN DES ENFANTS;Salle de danse;7 RUE DES CINQ DIAMANTS 75013;48.82979; 2.35212;X;
;BOWLING DU STADIUM;Bowling;66 AVENUE DE LA PORTE D'IVRY 75013;48.8206; 2.37113;X;
;COLLEGE EVARISTE GALOIS;Salle multisports;11 RUE DU DOCTEUR BOURNEVILLE 75013;48.81838; 2.35802;X;
;GYMNASE CHOISY;Salle multisports;4 bis AVENUE DE CHOISY 75013;48.82093; 2.36547;X;
;LYCEE COLLEGE CLAUDE MONET;Salle multisports;1 RUE DU DOCTEUR MAGNAN 75013;48.82703; 2.36242;X;
;COLLEGE CAMILLE CLAUDEL;Salle multisports;4 bis AVENUE DE CHOISY 75013;48.82094; 2.36527;X;
;ECOLE COLLEGE SAINTE ANNE;Salle multisports;109 RUE BOBILLOT 75013;48.82342; 2.34884;X;
;CENTRE D'ANIMATION BAUDRICOURT;Salle de danse;6 RUE SIMONE WEIL 75013;48.82353; 2.36425;X;
;ECOLE COLLEGE SAINTE ANNE;Salle multisports;109 RUE BOBILLOT 75013;48.82342; 2.34884;X;
;COLLEGE GUSTAVE FLAUBERT;Salle multisports;82 AVENUE D'IVRY 75013;48.82484; 2.36224;X;
;CENTRE SPORTIF GLACIERE 121;Salle multisports;121 RUE DE LA GLACIERE 75013;48.82712; 2.34235;X;
;LYCEE COLLEGE CLAUDE MONET;Salle multisports;1 RUE DU DOCTEUR MAGNAN 75013;48.82703; 2.36242;X;
;CITE SCOLAIRE RODIN;Salle multisports;19 RUE CORVISART 75013;48.83255; 2.3486;X;
;ASSOCIATION DU FOYER JEUNES TOLBIAC;Salles polyvalentes / des fêtes / non spécialisées;234 RUE TOLBIAC 75013;48.82638; 2.34385;X;
;STADE CHARLETY;Court de tennis;99 BOULEVARD KELLERMANN 75013;48.81725; 2.34622;X;
;COLLEGE EVARISTE GALOIS;Salle multisports;11 RUE DU DOCTEUR BOURNEVILLE 75013;48.81838; 2.35802;X;
;STADE CHARLETY;Salle multisports;99 BOULEVARD KELLERMANN 75013;48.81813; 2.34531;X;
;CITE SCOLAIRE RODIN;Salle multisports;19 RUE CORVISART 75013;48.83255; 2.3486;X;
;ECOLE NATIONALE CHIMIE PHYSIQUE BIOLOGIE;Salle multisports;11 RUE PIRANDELLO 75013;48.83661; 2.35708;X;
;COLLEGE EVARISTE GALOIS;Plateau EPS/Multisports/city-stades;11 RUE DU DOCTEUR BOURNEVILLE 75013;48.81829; 2.35766;X;
;CENTRE SPORTIF DU DOCTEUR BOURNEVILLE KELLERMANN;Salle multisports;5 RUE DU DOCTEUR BOURNEVILLE 75013;48.81861; 2.35748;X;
;COLLEGE GUSTAVE FLAUBERT;Terrain de basket-ball;82 AVENUE D'IVRY 75013;48.82511; 2.36324;X;
;CITE SCOLAIRE RODIN;Salle multisports;19 RUE CORVISART 75013;48.83255; 2.3486;X;
;TEP DU DOCTEUR LAURENT;Aire de lancer;12 RUE DU DOCTEUR LAURENT 75013;48.82559; 2.35628;X;
;CITE SCOLAIRE RODIN;Salle multisports;19 RUE CORVISART 75013;48.83255; 2.3486;X;
;CLUB MED Italie;Salle de musculation/cardiotraining;14 RUE VANDREZANNE 75013;48.82813; 2.35569;X;
;UNION SPORTIVE MAISON BLANCHE;Salle de danse;22 RUE CHARLES FOURIER 75013;48.82511; 2.35147;X;
;CITE SCOLAIRE RODIN;Plateau EPS/Multisports/city-stades;19 RUE CORVISART 75013;48.83243; 2.34827;X;
;GYMNASE DE LA POINTE D'IVRY;Salle multisports;47 AVENUE D'IVRY 75013;48.82309; 2.36561;X;
;GYMNASE DE LA POINTE D'IVRY;Salle multisports;47 AVENUE D'IVRY 75013;48.82309; 2.36561;X;
;PLATEAU MULTISPORT;Plateau EPS/Multisports/city-stades;140 BD MASSENA 75013;48.81993; 2.36224;X;
;CENTRE SPORTIF GEORGES CARPENTIER;Terrain de football;81 BOULEVARD MASSENA 75013;48.81859; 2.36707;X;
;GYMNASE CAILLAUX;Salle de danse;3 RUE CAILLAUX 75013;48.82316; 2.36153;X;
;CLUB MED Italie;Salle de musculation/cardiotraining;14 RUE VANDREZANNE 75013;48.82813; 2.35569;X;
;ECOLE NATIONALE CHIMIE PHYSIQUE BIOLOGIE;Salle multisports;11 RUE PIRANDELLO 75013;48.83661; 2.35708;X;
;COMPLEXE SPORTIF DE CHOISY;Salle multisports;13 AVENUE DE LA PORTE DE CHOISY 75013;48.8184; 2.36538;X;
;COLLEGE THOMAS MANN;Salle multisports;91 AVENUE DE FRANCE 75013;48.82828; 2.37763;X;
;BIBLIOTHEQUE FRANCOIS MITTERAND;Salle multisports;11 QUAI FRANCOIS-MAURIAC 75013;48.83418; 2.3747;X;
;CENTRE SPORTIF CHARLES MOUREU;Salle ou terrain de badminton;17 AVENUE EDISON 75013;48.82804; 2.36219;X;
;CENTRE SPORTIF AUGUSTE BLANQUI;Salle multisports;26 BOULEVARD AUGUSTE BLANQUI 75013;48.83058; 2.35168;X;
;CENTRE SPORTIF GEORGES CARPENTIER;Salle multisports;81 BOULEVARD MASSENA 75013;48.82039; 2.36738;X;
;GYMNASE KELLERMANN;Salle multisports;110 BOULEVARD KELLERMANN 75013;48.81972; 2.3448;X;
;CLUB MED Italie;Salle de cours collectifs;14 RUE VANDREZANNE 75013;48.82813; 2.35569;X;
;ECOLE COLLEGE NOTRE DAME DE LA GARE;Salle multisports;20 RUE DOMREMY 75013;48.83015; 2.37225;X;
;CENTRE SPORTIF GEORGES CARPENTIER;Salle multisports;81 BOULEVARD MASSENA 75013;48.82039; 2.36738;X;
;CENTRE SPORTIF GEORGES CARPENTIER;Stade d’athlétisme;81 BOULEVARD MASSENA 75013;48.81965; 2.36905;X;
;CENTRE SPORTIF GEORGES CARPENTIER;Salle multisports;81 BOULEVARD MASSENA 75013;48.82039; 2.36738;X;
;CENTRE SPORTIF GEORGES CARPENTIER;Salle multisports;81 BOULEVARD MASSENA 75013;48.82059; 2.36806;X;
;BIBLIOTHEQUE FRANCOIS MITTERAND;Salle multisports;11 QUAI FRANCOIS-MAURIAC 75013;48.83418; 2.3747;X;
;TEP JENNER;Plateau EPS/Multisports/city-stades;47 RUE JENNER 75013;48.83572; 2.36073;X;
;CENTRE SPORTIF GEORGES CARPENTIER;Salle multisports;81 BOULEVARD MASSENA 75013;48.82023; 2.36978;X;
;CENTRE SPORTIF GEORGES CARPENTIER;Salle multisports;81 BOULEVARD MASSENA 75013;48.82023; 2.36978;X;
;CENTRE SPORTIF GEORGES CARPENTIER;Salle multisports;81 BOULEVARD MASSENA 75013;48.82023; 2.36978;X;
;CENTRE SPORTIF GEORGES CARPENTIER;Salle multisports;81 BOULEVARD MASSENA 75013;48.82023; 2.36978;X;
;CENTRE SPORTIF GEORGES CARPENTIER;Salle multisports;81 BOULEVARD MASSENA 75013;48.82023; 2.36978;X;
;TEP DUNOIS;Plateau EPS/Multisports/city-stades;59 RUE DUNOIS 75013;48.8323; 2.36609;X;
;CENTRE SPORTIF GEORGES CARPENTIER;Salle multisports;81 BOULEVARD MASSENA 75013;48.82023; 2.36978;X;
;CENTRE SPORTIF GEORGES CARPENTIER;Salle multisports;81 BOULEVARD MASSENA 75013;48.82023; 2.36978;X;
;LYCEE COLLEGE CLAUDE MONET;Salle multisports;1 RUE DU DOCTEUR MAGNAN 75013;48.82703; 2.36242;X;
;STADE CHARLETY;Terrain de football;99 BOULEVARD KELLERMANN 75013;48.8185; 2.3466;X;
;GYMNASE CHOISY;Structure Artificielle d'Escalade;4 bis AVENUE DE CHOISY 75013;48.82093; 2.36547;X;
;GYMNASE MARCEL CERDAN;Salle de cours collectifs;5 bis RUE EUGENE OUDINE 75013;48.82595; 2.37612;X;
;CENTRE SPORTIF GEORGES CARPENTIER;Terrain de rugby;81 BOULEVARD MASSENA 75013;48.81901; 2.36831;X;
;UNIVERSITÉ PARIS VI;Dojo / Salle d'arts martiaux;4 PLACE DE JUSSIEU 75005;48.84786; 2.35818;X;
;GYMNASE AMYOT;Dojo / Salle d'arts martiaux;3 RUE AMYOT 75005;48.84344; 2.34773;X;
;LYCÉE HENRI IV;Salle de gymnastique sportive;23 RUE CLOVIS 75005;48.84602; 2.34817;X;
;PISCINE MUNICIPALE JEAN TARIS;Bassin sportif de natation;16 RUE THOUIN 75005;48.84502; 2.34842;X;
;LYCEE NOTRE DAME DES OISEAUX;Salle multisports;12 RUE MICHEL ANGE 75016;48.8472; 2.26351;X;
;CENTRE SPORTIF GEO ANDRE;Salle ou terrain de squash;2 RUE DU COMMANDANT GUILBAUD 75016;48.83927; 2.25246;X;
;Lagardère Paris Racing;Bassin sportif de natation;1 CHEMIN DE LA CROIX CATELAN 75016;48.8642; 2.25602;X;
;TENNIS CLUB DE PARIS;Plateau EPS/Multisports/city-stades;15 AVENUE FELIX D'HERELLE 75016;48.83529; 2.2576;X;
;TENNIS CLUB DE PARIS;Plateau EPS/Multisports/city-stades;15 AVENUE FELIX D'HERELLE 75016;48.83529; 2.2576;X;
;STADE SUCHET;Plateau EPS/Multisports/city-stades;26 AVENUE DU MARECHAL FRANCHET D'ESPEREY 75016;48.8542; 2.26211;X;
;TENNIS JEAN DIXIMIER-APSAP- VP;Court de tennis;19 RUE DU GENERAL MALLETERRE 75016;48.835338; 2.261464;X;
;PARC DES PRINCES;Terrain de football;24 RUE DU COMMANDANT GUILBAUD 75016;48.8421; 2.26653;X;
;LYCÉE SAINT JEAN DE PASSY;Salle multisports;72 RUE RAYNOUARD 75016;48.85427; 2.27849;X;
;CENTRE SPORTIF HENRY MORTHERLANT;Bassin sportif de natation;30 BOULEVARD LANNES 75016;48.86827; 2.27118;X;
;LYCEE JANSON DE SAILLY;Salle multisports;106 RUE DE LA POMPE 75016;48.8655; 2.27945;X;
;LYCÉE SAINT JEAN DE PASSY;Salle multisports;72 RUE RAYNOUARD 75016;48.85427; 2.27849;X;
;Lagardère Paris Racing;Bassin sportif de natation;1 CHEMIN DE LA CROIX CATELAN 75016;48.8641; 2.25646;X;
;LYCÉE SAINT JEAN DE PASSY;Salle multisports;72 RUE RAYNOUARD 75016;48.85427; 2.27849;X;
;CENTRE SPORTIF GEO ANDRE;Salle multisports;2 RUE DU COMMANDANT GUILBAUD 75016;48.83927; 2.25246;X;
;GOLF DU BOIS DE BOULOGNE;Practice;1 ROUTE D'AUTEUIL AUX LACS 75016;48.8536; 2.25866;X;
;LYCÉE SAINT JEAN DE PASSY;Salle multisports;72 RUE RAYNOUARD 75016;48.85427; 2.27849;X;
;LYCEE GERSON;Salle de danse;31 RUE DE LA POMPE 75016;48.8598; 2.26996;X;
;STADE PORTE DE LA MUETTE;Skate park;60 BOULEVARD LANNES 75016;48.86493; 2.268706;X;
;STADE PIERRE DE COUBERTIN;Salle multisports;84 AVENUE GEORGES LAFONT 75016;48.8498; 2.25549;X;
;LYCEE JEAN DE LA FONTAINE;Salle multisports;1 RUE MOLITOR 75016;48.8453; 2.26583;X;
;LYCEE NOTRE DAME DES OISEAUX;Salle multisports;12 RUE MICHEL ANGE 75016;48.8472; 2.26351;X;
;TENNIS CLUB DE PARIS;Court de tennis;15 AVENUE FELIX D'HERELLE 75016;48.834518; 2.259262;X;
;CENTRE D'ANIMATION DU POINT DU JOUR 1;Salle de danse;25 RUE MESNIL 75016;48.867667; 2.284019;X;
;LYCÉE SAINT JEAN DE PASSY;Salle multisports;72 RUE RAYNOUARD 75016;48.85427; 2.27849;X;
;LYCEE JEAN BAPTISTE SAY;Salle multisports;11 bis RUE D'AUTEUIL 75016;48.8476; 2.27486;X;
;STADE PORTE DE LA MUETTE;Terrain de football;60 BOULEVARD LANNES 75016;48.865189; 2.269561;X;
;LYCEE JEAN DE LA FONTAINE;Salle multisports;1 RUE MOLITOR 75016;48.8453; 2.26583;X;
;WAOU CLUB MED GYM AUTEUIL;Salle de danse;11 RUE CHANEZ 75016;48.8468; 2.25956;X;
;TENNIS JEAN DIXIMIER-APSAP- VP;Court de tennis;19 RUE DU GENERAL MALLETERRE 75016;48.835769; 2.262405;X;
;HOTEL COSTE K;Salle de culturisme;81 AVENUE KLEBER 75016;48.8649; 2.28882;X;
;HOTEL COSTE K;Salle de culturisme;81 AVENUE KLEBER 75016;48.8649; 2.28882;X;
;STADE PORTE DE LA MUETTE;Parcours sportif/santé;60 BOULEVARD LANNES 75016;48.864013; 2.267948;X;
;WAOU CLUB MED GYM AUTEUIL;Salle de musculation/cardiotraining;11 RUE CHANEZ 75016;48.8468; 2.25956;X;
;BOULODROME TELEGRAPHE;Terrain de pétanque;46 RUE DU TELEGRAPHE 75020;48.875; 2.39957;X;
;CLUB DE LA NATION;Salle de danse;5 RUE DE LAGNY 75020;48.8489; 2.39995;X;
;COLLEGE LUCIE FAURE;Salle multisports;40 RUE DES PYRENEES 75020;48.8574; 2.40642;X;
;CITE SCOLAIRE HELENE BOUCHER;Salle multisports;75 COURS DE VINCENNES 75020;48.8477; 2.40712;X;
;CITE SCOLAIRE HELENE BOUCHER;Salle multisports;75 COURS DE VINCENNES 75020;48.8477; 2.40712;X;
;ETABLISSEMENT SAINTE LOUISE;Salle multisports;73 RUE DE LA MARE 75020;48.8731; 2.38917;X;
;GYMNASE DES ORTEAUX;Salle multisports;89 RUE DES ORTEAUX 75020;48.8558; 2.4075;X;
;LA ROULOTTE A VAPEUR;Salle de danse;3 RUE DES VIGNOLES 75020;48.8532; 2.39773;X;
;MJC LES HAUTS DE BELLEVILLE;Salle multisports;43 RUE BORREGO 75020;48.8732; 2.41175;X;
;FSKLM;Dojo / Salle d'arts martiaux;46 RUE DES RIGOLES 75020;48.8729; 2.39188;X;
;COLLEGE PIERRE MENDES France;Terrain de basket-ball;24 RUE LE VAU 75020;48.869098; 2.411032;X;
;JARDIN DE LA GARE DE CHARONNE;Terrain de basket-ball;63 BD DAVOUT68 RUE VOLGA 75020;48.8676; 2.40949;X;
;COLLEGE SAINT GERMAIN DE CHARONNE;Salles polyvalentes / des fêtes / non spécialisées;3 RUE DES PRAIRIES 75020;48.8611; 2.40479;X;
;GYMNASE PELLEPORT;Salle de musculation/cardiotraining;162 RUE PELLEPORT 75020;48.8729; 2.39791;X;
;CLUB MED GYM PARIS 20EME;Salle de musculation/cardiotraining;63 RUE DE BAGNOLET 75020;48.8574; 2.39914;X;
;CENTRE SPORTIF LOUIS LUMIERE;Salle de danse;30 RUE LOUIS LUMIERE 75020;48.8589; 2.41207;X;
;INTERNATIONAL MARTIAL CLUB;Salle de boxe;93 RUE PELLEPORT 75020;48.8699; 2.39978;X;
;CITE SCOLAIRE NOTRE DAME DE LOURDES;Salles polyvalentes / des fêtes / non spécialisées;16 RUE TACLET 75020;48.8715; 2.3978;X;
;A.A.A.S.C.E.P.;Dojo / Salle d'arts martiaux;14 RUE LE BUA 75020;48.8668; 2.40357;X;
;CENTRE SPORTIF LOUIS LUMIERE;Dojo / Salle d'arts martiaux;30 RUE LOUIS LUMIERE 75020;48.8589; 2.41206;X;
;CENTRE D'ANIMATION LES AMANDIERS;Dojo / Salle d'arts martiaux;110 RUE DES AMANDIERS 75020;48.868152; 2.388624;X;
;LYCEE COLLEGE MAURICE RAVEL;Salle multisports;89 COURS DE VINCENNES 75020;48.8476; 2.40824;X;
;LYCEE COLLEGE MAURICE RAVEL;Salle multisports;89 COURS DE VINCENNES 75020;48.8476; 2.40824;X;
;CENTRE D'ANIMATION LES AMANDIERS;Dojo / Salle d'arts martiaux;110 RUE DES AMANDIERS 75020;48.868152; 2.388624;X;
;LYCEE COLLEGE MAURICE RAVEL;Salle multisports;89 COURS DE VINCENNES 75020;48.8476; 2.40824;X;
;COLLEGE LEON GAMBETTA;Salle multisports;149 AVENUE GAMBETTA 75020;48.86983; 2.40274;X;
;LYCEE COLLEGE MAURICE RAVEL;Salle multisports;89 COURS DE VINCENNES 75020;48.8476; 2.40824;X;
;COLLEGE LEON GAMBETTA;Salle multisports;149 AVENUE GAMBETTA 75020;48.86983; 2.40274;X;
;LYCEE COLLEGE MAURICE RAVEL;Salle multisports;89 COURS DE VINCENNES 75020;48.8476; 2.40824;X;
;CITE SCOLAIRE NOTRE DAME DE LOURDES;Plateau EPS/Multisports/city-stades;16 RUE TACLET 75020;48.8711; 2.3981;X;
;COLLEGE ROBERT DOISNEAU;Salle multisports;51 RUE DES PANOYAUX 75020;48.8695; 2.38798;X;
;GYMNASE BRETONNEAU;Salle de gymnastique sportive;7 RUE BRETONNEAU 75020;48.8759; 2.40304;X;
;COLLEGE LEON GAMBETTA;Salle multisports;149 AVENUE GAMBETTA 75020;48.86983; 2.40274;X;
;BASSIN ECOLE LOUIS LUMIERE;Bassin sportif de natation;34 RUE LOUIS LUMIERE 75020;48.8589; 2.4117;X;
;CITE SCOLAIRE HELENE BOUCHER;Plateau EPS/Multisports/city-stades;75 COURS DE VINCENNES 75020;48.8477; 2.40712;X;
;SQUARE REPINE;Plateau EPS/Multisports/city-stades;4 RUE FELIX HUGUENET 75020;48.8485; 2.40457;X;
;SQUARE REPINE;Plateau EPS/Multisports/city-stades;4 RUE FELIX HUGUENET 75020;48.8485; 2.40457;X;
;GYMNASE MENILMONTANT;Salle de boxe;114 RUE DE MENILMONTANT 75020;48.8699; 2.39416;X;
;ASSOCIATION IDPF;Salle de danse;46 RUE DES RIGOLES 75020;48.8729; 2.39189;X;
;COMPLEXE SPORTIF ALFRED NAKACHE;Bassin sportif de natation;04-déc. RUE DENOYEZ 75020;48.871245; 2.37875;X;
;COMPLEXE SPORTIF ALFRED NAKACHE;Dojo / Salle d'arts martiaux;04-déc. RUE DENOYEZ 75020;48.871245; 2.37875;X;
;COMPLEXE SPORTIF ALFRED NAKACHE;Dojo / Salle d'arts martiaux;04-déc. RUE DENOYEZ 75020;48.871245; 2.37875;X;
;COMPLEXE SPORTIF ALFRED NAKACHE;Dojo / Salle d'arts martiaux;04-déc. RUE DENOYEZ 75020;48.871245; 2.37875;X;
;TEP DU BESSIN BOCAGE;Plateau EPS/Multisports/city-stades;15 RUE DU BESSIN 75015;48.8308; 2.30578;X;
;CENTRE SPORTIF ÉMILE ANTOINE;Plateau EPS/Multisports/city-stades;9 RUE JEAN REY 75015;48.8559; 2.29142;X;
;CENTRE SPORTIF ÉMILE ANTOINE;Plateau EPS/Multisports/city-stades;9 RUE JEAN REY 75015;48.8559; 2.29142;X;
;CENTRE SPORTIF SABLONNIÈRE;Plateau EPS/Multisports/city-stades;62 RUE CAMBRONNE 75015;48.8446; 2.31131;X;
;TENNIS CLUB CHEMINOT DE VAUGIRARD;Court de tennis;399 RUE DE VAUGIRARD 75015;48.8329; 2.29117;X;
;CENTRE SPORTIF CROIX NIVERT;Plateau EPS/Multisports/city-stades;107 RUE DE LA CROIX NIVERT 75015;48.8421; 2.2951;X;
;CENTRE SPORTIF SABLONNIÈRE;Dojo / Salle d'arts martiaux;62 RUE CAMBRONNE 75015;48.845; 2.31969;X;
;CENTRE CONVENTION;Salle de danse;159 RUE BLOMET 75015;48.8379; 2.29446;X;
;LE CLUB;Salle de musculation/cardiotraining;61 QUAI DE GRENELLE 75015;48.8513; 2.28327;X;
;CENTRE SPORTIF CHARLES RIGOULOT;Salle multisports;18 AVENUE PORTE DE BRANCION 75015;48.826736; 2.300251;X;
;CENTRE SPORTIF CHARLES RIGOULOT;Salle multisports;18 AVENUE PORTE DE BRANCION 75015;48.826736; 2.300251;X;
;CENTRE SPORTIF CHARLES RIGOULOT;Salle multisports;18 AVENUE PORTE DE BRANCION 75015;48.826736; 2.300251;X;
;CENTRE SPORTIF CHARLES RIGOULOT;Salle multisports;18 AVENUE PORTE DE BRANCION 75015;48.826736; 2.300251;X;
;CENTRE SPORTIF CHARLES RIGOULOT;Terrain de pétanque;18 AVENUE PORTE DE BRANCION 75015;48.827273; 2.298773;X;
;CENTRE SPORTIF CHARLES RIGOULOT;Terrain de pétanque;18 AVENUE PORTE DE BRANCION 75015;48.827273; 2.298773;X;
;LE CLUB;Bassin ludique de natation;61 QUAI DE GRENELLE 75015;48.8513; 2.28327;X;
;GYMNASE EMILE ANTHOINE;Salle multisports;9 RUE JEAN REY 75015;48.85556; 2.29094;X;
;ECOLE ACTIVE BILINGUE JEANINE MANUEL;Salle multisports;70 RUE DU THEATRE 75015;48.8477; 2.29114;X;
;GYMNASE CEVENNES;Salle de danse;11 RUE DE LA MONTAGNE D'AULAS 75015;48.8404; 2.2791;X;
;ANNEXE COLLEGE LUCIE FAURE;Salle multisports;10 RUE CRISTINO GARCIA 75020;48.8514; 2.41451;X;
;MJS LES HAUTS DE BELLEVILLE;Salle de gymnastique sportive;36 bis RUE DU BORREGO 75020;48.8732; 2.40806;X;
;ANNEXE COLLEGE LUCIE FAURE;Plateau EPS/Multisports/city-stades;10 RUE CRISTINO GARCIA 75020;48.8544; 2.41444;X;
;LA ROULOTTE A VAPEUR;Salle de danse;3 RUE DES VIGNOLES 75020;48.8532; 2.39773;X;
;CENTRE SPORTIF LOUIS LUMIERE;Salle multisports;30 RUE LOUIS LUMIERE 75020;48.8589; 2.41206;X;
;CENTRE SPORTIF LOUIS LUMIERE;Salle multisports;30 RUE LOUIS LUMIERE 75020;48.8589; 2.41206;X;
;ETABLISSEMENT SAINTE LOUISE;Salle multisports;73 RUE DE LA MARE 75020;48.8731; 2.38917;X;
;A.A.A.S.C.E.P.;Salle de danse;14 RUE LE BUA 75020;48.8668; 2.40357;X;
;GYMNASE DES ORTEAUX;Salle multisports;89 RUE DES ORTEAUX 75020;48.8558; 2.4075;X;
;TEP SAINT BLAISE;Terrain de basket-ball; RUE PAULINE KERGOMARD 75020;48.8555; 2.40727;X;
;COLLEGE JEAN BAPTISTE CLEMENT;Salle multisports;26 RUE HENRI CHEVREAU 75020;48.8699; 2.38934;X;
;POINT FORME PLUS;Salle de cours collectifs;138 RUE DE BAGNOLET 75020;48.8595; 2.40617;X;
;TEP AMANDIERS;Piste d'athlétisme isolée;21 RUE DES CENDRIERS 75020;48.86558; 2.38658;X;
;FAIR PLAY SPORT 20EME (DOJO UNIVERSEL);Salle multisports;5 CITE CHAMPAGNE 75020;48.8537; 2.40522;X;
;COLLEGE SAINT GERMAIN DE CHARONNE;Terrain de basket-ball;3 RUE DES PRAIRIES 75020;48.8611; 2.40479;X;
;COLLEGE SAINT GERMAIN DE CHARONNE;Salles polyvalentes / des fêtes / non spécialisées;3 RUE DES PRAIRIES 75020;48.8611; 2.40479;X;
;COLLEGE SAINT GERMAIN DE CHARONNE;Salles polyvalentes / des fêtes / non spécialisées;3 RUE DES PRAIRIES 75020;48.8611; 2.40479;X;
;CENTRE SPORTIF DAVOUT;Terrain de pétanque;134 BOULEVARD DAVOUT 75020;48.861; 2.40986;X;
;CENTRE SPORTIF DAVOUT;Plateau EPS/Multisports/city-stades;134 BOULEVARD DAVOUT 75020;48.8615; 2.40954;X;
;CENTRE SPORTIF LOUIS LUMIERE;Court de tennis;30 RUE LOUIS LUMIERE 75020;48.8576; 2.41252;X;
;CENTRE SPORTIF MARYSE HILSZ;Salle multisports;34 RUE MARYSE HILSZ 75020;48.851419; 2.412975;X;
;SQUARE ELISA BOREY;Terrain de pétanque; RUE ELISA BOREY 75020;48.8678; 2.39007;X;
;SQUARE SEVERINE;Skate park;1 AV. DE LA PORTE DE BAGNOLETBOULEVARD MOUTIER 75020;48.8652; 2.4103;X;
;CENTRE SPORTIF DAVOUT;Plateau EPS/Multisports/city-stades;134 BOULEVARD DAVOUT 75020;48.8615; 2.40954;X;
;CENTRE SPORTIF LOUIS LUMIERE;Salle multisports;30 RUE LOUIS LUMIERE 75020;48.858; 2.41177;X;
;CENTRE SPORTIF LOUIS LUMIERE;Terrain de football;30 RUE LOUIS LUMIERE 75020;48.8602; 2.41267;X;
;GYMNASE LE VAU;Salle multisports;36 RUE LE VAU 75020;48.8695; 2.41092;X;
;GYMNASE LE VAU;Salle multisports;36 RUE LE VAU 75020;48.8695; 2.41092;X;
;CENTRE SPORTIF MAX ROUSIE;Dojo / Salle d'arts martiaux;28 RUE ANDRE BRECHET 75017;48.8992; 2.32529;X;
;COLLEGE SAINTE URSULE - LOUISE DE BETTIGNIES;Salle multisports;102 BOULEVARD PEREIRE 75017;48.88675; 2.299;X;
;CENTRE SPORTIF MAX ROUSIE;Terrain de handball;28 RUE ANDRE BRECHET 75017;48.8995; 2.32573;X;
;SALLES DE SPORT BERNARD LAFAY;Salle multisports;26 RUE BOULAY 75017;48.894592; 2.318284;X;
;LYCÉE HONORE DE BALZAC;Salle multisports;118 BOULEVARD BESSIERES 75017;48.8948; 2.31366;X;
;COLLEGE BORIS VIAN;Salle multisports;76 BOULEVARD BERTHIER 75017;48.8906; 2.30453;X;
;I.U.F.M;Salle de cours collectifs;56 BOULEVARD DES BATIGNOLLES 75017;48.8825; 2.3217;X;
;I.U.F.M;Salles polyvalentes / des fêtes / non spécialisées;56 BOULEVARD DES BATIGNOLLES 75017;48.8825; 2.3217;X;
;STADE PORTE D'ASNIÈRES;Plateau EPS/Multisports/city-stades;6 AVENUE BRUNETIERE 75017;48.8909; 2.31353;X;
;VIT'HALLES BATIGNOLLES;Salle de musculation/cardiotraining;32 BOULEVARD DES BATIGNOLLES 75017;48.883022; 2.324192;X;
;LYCÉE HONORE DE BALZAC;Salle multisports;118 BOULEVARD BESSIERES 75017;48.8948; 2.31366;X;
;LYCÉE HONORE DE BALZAC;Salle multisports;118 BOULEVARD BESSIERES 75017;48.8948; 2.31366;X;
;VIT'HALLES BATIGNOLLES;Bassin ludique de natation;32 BOULEVARD DES BATIGNOLLES 75017;48.883022; 2.324192;X;
;LYCÉE HONORE DE BALZAC;Salle multisports;118 BOULEVARD BESSIERES 75017;48.8948; 2.31366;X;
;GYMNASE FRAGONARD;Salle multisports;10 RUE FRAGONARD 75017;48.8943; 2.31582;X;
;COLLEGE SAINTE URSULE - LOUISE DE BETTIGNIES;Salle multisports;102 BOULEVARD PEREIRE 75017;48.88675; 2.299;X;
;GYMNASE FRAGONARD;Salle multisports;10 RUE FRAGONARD 75017;48.8943; 2.31582;X;
;SALLE MAURICE ROUSSEAUX;Salles polyvalentes / des fêtes / non spécialisées;159 RUE DE ROME 75017;48.8869; 2.3149;X;
;COLLEGE PIERRE DE RONSARD;Salle multisports;140 AVENUE DE WAGRAM 75017;48.885929; 2.304071;X;
;SQUARE LES EPINETTES;Terrain de football; RUE MARIA DERAISMES 75017;48.8939; 2.32634;X;
;SQUARE JEAN LECLAIRE;Plateau EPS/Multisports/city-stades; RUE JEAN LECLAIRE 75017;48.8961; 2.32506;X;
;CLUB MED GYM MAILLOT;Salle de cours collectifs;17 RUE DU DEBARCADERE 75017;48.8779694; 2.2854593;X;
;I.U.F.M;Terrain de handball;56 BOULEVARD DES BATIGNOLLES 75017;48.8825; 2.3217;X;
;LYCÉE HONORE DE BALZAC;Terrain de volley-ball;118 BOULEVARD BESSIERES 75017;48.8948; 2.31366;X;
;TEP LEMERCIER;Plateau EPS/Multisports/city-stades;108 QUATER RUE LEMERCIER 75017;48.890464; 2.318138;X;
;COLLEGE ANDRE MALRAUX;Salle multisports;5 bis RUE SAINT FERDINAND 75017;48.8789; 2.29082;X;
;SALLES DE SPORT BERNARD LAFAY;Salle multisports;26 RUE BOULAY 75017;48.894592; 2.318284;X;
;WAOU CLUB MED GYM PORTE MAILLOT;Salle de musculation/cardiotraining;1 place du général Koenig 75017;48.8807159; 2.2850221;X;
;SALLES DE SPORT BERNARD LAFAY;Dojo / Salle d'arts martiaux;26 RUE BOULAY 75017;48.894592; 2.318284;X;
;LYCEE CARNOT;Salle de gymnastique sportive;145 BOULEVARD MALESHERBES 75017;48.8946; 2.3079;X;
;CENTRE SPORTIF REIMS;Salle de danse;224 RUE DE COURCELLES 75017;48.8887; 2.29476;X;
;CENTRE SPORTIF REIMS;Dojo / Salle d'arts martiaux;224 RUE DE COURCELLES 75017;48.8862; 2.29476;X;
;CENTRE SPORTIF REIMS;Dojo / Salle d'arts martiaux;224 RUE DE COURCELLES 75017;48.8862; 2.29476;X;
;CENTRE SPORTIF REIMS;Court de tennis;224 RUE DE COURCELLES 75017;48.8894; 2.29646;X;
;CENTRE SPORTIF REIMS;Salle de boxe;224 RUE DE COURCELLES 75017;48.8887; 2.29476;X;
;CENTRE SPORTIF REIMS;Salle de boxe;224 RUE DE COURCELLES 75017;48.8887; 2.29476;X;
;CENTRE SPORTIF REIMS;Salle de danse;224 RUE DE COURCELLES 75017;48.8887; 2.29476;X;
;WAOU CLUB MED GYM PORTE MAILLOT;Salle de cours collectifs;1 place du général Koenig 75017;48.8807159; 2.2850221;X;
;LYCEE CARNOT;Salle de gymnastique sportive;145 BOULEVARD MALESHERBES 75017;48.8946; 2.3079;X;
;LYCÉE HONORE DE BALZAC;Piste d'athlétisme isolée;118 BOULEVARD BESSIERES 75017;48.8952; 2.31365;X;
;PLURIAL SPORT 1;Salle de cours collectifs;6 RUE ABEL TRUCHET 75017;48.8849; 2.32394;X;
;SITE PEREIRE;Court de tennis;119 BOULEVARD PEREIRE 75017;48.886007; 2.299277;X;
;LADY FITNESS 2;Salle de musculation/cardiotraining;131 rue Cardinet 75017;48.882; 2.30346;X;
;GYMNASE DES POISONNIERS;Salle de musculation/cardiotraining;151 RUE DES POISSONNIERS 75018;48.896838; 2.352767;X;
;GYMNASE DOUDEAUVILLE;Salle multisports;82 RUE DOUDEAUVILLE 75018;48.8883; 2.35931;X;
;PARIS TONIC;Salle de musculation/cardiotraining;45 RUE DE CLIGNANCOURT 75018;48.8866; 2.34753;X;
;COLLEGE COYSEVOX;Salle multisports;16 RUE COYSEVOX 75018;48.8915; 2.32969;X;
;COLLEGE COYSEVOX;Salle multisports;16 RUE COYSEVOX 75018;48.8915; 2.32969;X;
;PISCINE MUNICIPALE HEBERT;Bassin sportif de natation;2 RUE DES FILLETTES 75018;48.8941; 2.36323;X;
;GYMNASE LEPIC;Salle multisports;45 RUE DURANTIN 75018;48.887; 2.3415;X;
;CERCLE DE LA FORME ORNANO;Salle de cours collectifs;127 RUE DU MONT CENIS 75018;48.8965; 2.34651;X;
;CENTRE SPORTIF POISSONNIERS;Salle multisports;2 RUE JEAN COCTEAU 75018;48.89953; 2.34664;X;
;CENTRE SPORTIF POISSONNIERS;Salle multisports;2 RUE JEAN COCTEAU 75018;48.89953; 2.34664;X;
;CENTRE SPORTIF TRISTAN TZARA (EVANGILE);Salle multisports;11 RUE TRISTAN TZARA 75018;48.8949; 2.36423;X;
;COLLEGE MARX DORMOY;Salle multisports;55 RUE MARX DORMOY 75018;48.8888; 2.35977;X;
;CENTRE SPORTIF TRISTAN TZARA (EVANGILE);Salle multisports;11 RUE TRISTAN TZARA 75018;48.8949; 2.36423;X;
;GYMNASE DES POISONNIERS;Salle multisports;151 RUE DES POISSONNIERS 75018;48.896838; 2.352767;X;
;CENTRE SPORTIF DE LA GOUTTE D'OR;Salle multisports;12 RUE DE LA GOUTTE D'OR 75018;48.88579; 2.35424;X;
;SQUARE LOUISE DE MARILLAC;Plateau EPS/Multisports/city-stades; PLACE DE LA CHAPELLE 75018;48.8968; 2.35997;X;
;GYMNASE DES POISONNIERS;Salle multisports;151 RUE DES POISSONNIERS 75018;48.896838; 2.352767;X;
;GYMNASE DES AMIRAUX;Salle multisports;17 RUE DES AMIRAUX 75018;48.8945; 2.36278;X;
;GYMNASE DES AMIRAUX;Salle multisports;17 RUE DES AMIRAUX 75018;48.8945; 2.36278;X;
;GYMNASE DES AMIRAUX;Salle multisports;17 RUE DES AMIRAUX 75018;48.8945; 2.36278;X;
;RENCONTRES INTERNATIONALES DANSE CONTEMPORAINE;Salle de danse;104 BOULEVARD DE CLICHY 75018;48.8929; 2.33111;X;
;GYMNASE DES AMIRAUX;Salle multisports;17 RUE DES AMIRAUX 75018;48.8945; 2.36278;X;
;CENTRE SPORTIF TRISTAN TZARA (EVANGILE);Salle multisports;11 RUE TRISTAN TZARA 75018;48.8949; 2.36423;X;
;CENTRE SPORTIF POISSONNIERS;Salle multisports;2 RUE JEAN COCTEAU 75018;48.89953; 2.34664;X;
;CENTRE SPORTIF DE LA GOUTTE D'OR;Salle multisports;12 RUE DE LA GOUTTE D'OR 75018;48.88579; 2.35424;X;
;CENTRE SPORTIF DE LA GOUTTE D'OR;Plateau EPS/Multisports/city-stades;12 RUE DE LA GOUTTE D'OR 75018;48.88579; 2.35424;X;
;HOPITAL BICHAT - APSAP;Salle de musculation/cardiotraining;46 RUE HENRI HUCHARD 75018;48.8986; 2.33096;X;
;CENTRE SPORTIF CHAMPIONNET;Court de tennis;172 RUE CHAMPIONNET 75018;48.8953; 2.34339;X;
;GYMNASE DOUDEAUVILLE;Salle multisports;82 RUE DOUDEAUVILLE 75018;48.8883; 2.35931;X;
;CENTRE SPORTIF MAX ROUSIE;Terrain de rugby;28 RUE ANDRE BRECHET 75017;48.8998; 2.32708;X;
;STADE PORTE D'ASNIÈRES;Aire de saut;6 AVENUE BRUNETIERE 75017;48.8914; 2.31306;X;
;CENTRE SPORTIF MAX ROUSIE;Stade d’athlétisme;28 RUE ANDRE BRECHET 75017;48.8993; 2.32624;X;
;CENTRE SPORTIF REIMS;Dojo / Salle d'arts martiaux;224 RUE DE COURCELLES 75017;48.8862; 2.29476;X;
;LYCÉE HONORE DE BALZAC;Salle de tennis de table;118 BOULEVARD BESSIERES 75017;48.8948; 2.31366;X;
;ECOLE DE DANSE;Salle de danse;5 bis RUE JADIN 75017;48.8812; 2.30567;X;
;DOJO PARIS 18EME;Salle de musculation/cardiotraining;15 RUE DE LA CHAPELLE 75018;48.8914; 2.35974;X;
;CENTRE SPORTIF POISSONNIERS;Terrain de football;2 RUE JEAN COCTEAU 75018;48.89953; 2.34664;X;
;SUN CITY SPORT;Salle de musculation/cardiotraining;90 AVENUE DE SAINT OUEN 75018;48.8933; 2.32763;X;
;CENTRE SPORTIF TRISTAN TZARA (EVANGILE);Court de tennis;11 RUE TRISTAN TZARA 75018;48.8946; 2.36403;X;
;GYMNASE LEPIC;Salle multisports;45 RUE DURANTIN 75018;48.887; 2.3415;X;
;CERCLE DE LA FORME ORNANO;Salle de musculation/cardiotraining;127 RUE DU MONT CENIS 75018;48.8965; 2.34651;X;
;CENTRE SPORTIF POISSONNIERS;Terrain de basket-ball;2 RUE JEAN COCTEAU 75018;48.89953; 2.34664;X;
;GYMNASE DOUDEAUVILLE;Salle multisports;82 RUE DOUDEAUVILLE 75018;48.8883; 2.35931;X;
;CENTRE SPORTIF TRISTAN TZARA (EVANGILE);Terrain de volley-ball;11 RUE TRISTAN TZARA 75018;48.8949; 2.36419;X;
;COLLEGE MARX DORMOY;Salle multisports;55 RUE MARX DORMOY 75018;48.8888; 2.35977;X;
;GYMNASE DES POISONNIERS;Salle multisports;151 RUE DES POISSONNIERS 75018;48.896838; 2.352767;X;
;GYMNASE DES AMIRAUX;Salle multisports;17 RUE DES AMIRAUX 75018;48.8945; 2.36278;X;
;CENTRE D'ANIMATION HEBERT;Salle de danse;12 RUE DES FILLETTES 75018;48.8941; 2.36322;X;
;CENTRE SPORTIF DE LA GOUTTE D'OR;Plateau EPS/Multisports/city-stades;12 RUE DE LA GOUTTE D'OR 75018;48.88579; 2.35424;X;
;CENTRE SPORTIF DE LA GOUTTE D'OR;Salle multisports;12 RUE DE LA GOUTTE D'OR 75018;48.88579; 2.35424;X;
;GYMNASE DES AMIRAUX;Salle multisports;17 RUE DES AMIRAUX 75018;48.8945; 2.36278;X;
;SALLES DE SPORTS NEY;Salle d'escrime;103 BOULEVARD NEY 75018;48.8976; 2.33645;X;
;CENTRE SPORTIF TRISTAN TZARA (EVANGILE);Salle multisports;11 RUE TRISTAN TZARA 75018;48.8949; 2.36423;X;
;SQUARE PASSAGE LEON;Terrain de basket-ball; PASSAGE LEON 75018;48.8865; 2.353;X;
;CENTRE SPORTIF DE LA GOUTTE D'OR;Salle multisports;12 RUE DE LA GOUTTE D'OR 75018;48.88579; 2.35424;X;
;CENTRE SPORTIF POISSONNIERS;Salle multisports;2 RUE JEAN COCTEAU 75018;48.89953; 2.34664;X;
;CENTRE SPORTIF POISSONNIERS;Salle multisports;2 RUE JEAN COCTEAU 75018;48.89953; 2.34664;X;
;PISCINE MUNICIPALE HEBERT;Bassin sportif de natation;2 RUE DES FILLETTES 75018;48.8941; 2.36323;X;
;PISCINE MUNICIPALE HEBERT;Bassin sportif de natation;2 RUE DES FILLETTES 75018;48.8941; 2.36323;X;
;CENTRE SPORTIF POISSONNIERS;Salle multisports;2 RUE JEAN COCTEAU 75018;48.89953; 2.34664;X;
;CENTRE SPORTIF POISSONNIERS;Salle multisports;2 RUE JEAN COCTEAU 75018;48.89953; 2.34664;X;
;PISCINE MUNICIPALE HEBERT;Bassin sportif de natation;2 RUE DES FILLETTES 75018;48.8941; 2.36323;X;
;ECOLE SAINT VINCENT;Salle multisports;8 RUE CHAMPIONNET 75018;48.8952; 2.36775;X;
;GYMNASE RONSARD;Salle multisports;2 RUE RONSARD 75018;48.88503; 2.34435;X;
;GYMNASE RONSARD;Salle multisports;2 RUE RONSARD 75018;48.88503; 2.34435;X;
;CENTRE D'ANIMATION HEBERT;Salles polyvalentes / des fêtes / non spécialisées;12 RUE DES FILLETTES 75018;48.8941; 2.36322;X;
;LYCEE AUGUSTE RENOIR;Salle multisports;24 RUE GANNERON 75018;48.887; 2.3283;X;
;HOPITAL BICHAT - APSAP;Salle de cours collectifs;46 RUE HENRI HUCHARD 75018;48.8986; 2.33096;X;
;CLUB MONTMARTOIS 1;Salle de cours collectifs;60 RUE ORDENER 75018;48.892; 2.34749;X;
;PISCINE MUNICIPALE DES AMIRAUX;Bassin sportif de natation;6 RUE HERMANN  LACHAPELLE 75018;48.8944; 2.35575;X;
;ASSOCIATION NATIONALE DE TIR DE LA POLICE;Pas de tir à la cible;56 BOULEVARD NEY 75018;48.8988; 2.35773;X;
;ASSOCIATION NATIONALE DE TIR DE LA POLICE;Pas de tir à la cible;56 BOULEVARD NEY 75018;48.8988; 2.35773;X;
;COLLEGE MARX DORMOY;Salle multisports;55 RUE MARX DORMOY 75018;48.8888; 2.35977;X;
;SALLES DE SPORTS NEY;Salle de boxe;103 BOULEVARD NEY 75018;48.8976; 2.33645;X;
;GYMNASE RONSARD;Salle multisports;2 RUE RONSARD 75018;48.88503; 2.34435;X;
;GYMNASE RONSARD;Salle de danse;2 RUE RONSARD 75018;48.88503; 2.34435;X;
;ESPACE JEUNE CHARLES HERMITE;Salle de cours collectifs;54 BOULEVARD NEY 75018;48.8989; 2.36411;X;
;CEDEC;Salle de danse;83 RUE DOUDEAUVILLE 75018;48.8883; 2.34904;X;
;SUN CITY SPORT;Dojo / Salle d'arts martiaux;90 AVENUE DE SAINT OUEN 75018;48.8933; 2.32763;X;
;BOWLING DE LA CHAPELLE;Bowling;6 AVENUE DE LA PORTE DE LA CHAPELLE 75018;48.8994; 2.35977;X;
;SUN CITY SPORT;Dojo / Salle d'arts martiaux;90 AVENUE DE SAINT OUEN 75018;48.8933; 2.32763;X;
;DOJO PARIS 18EME;Dojo / Salle d'arts martiaux;15 RUE DE LA CHAPELLE 75018;48.8914; 2.35974;X;
;SQUARE LEON SERPOLLET;Plateau EPS/Multisports/city-stades;25 RUE DES CLOYS 75018;48.8921; 2.33903;X;
;SQUARE SAINTE HELENE;Plateau EPS/Multisports/city-stades; RUE LETORT 75018;48.8963; 2.3431;X;
;CENTRE SPORTIF BERTRAND DAUVIN;Salle multisports;12 RUE RENE BINET 75018;48.89948; 2.34247;X;
;CENTRE SPORTIF BERTRAND DAUVIN;Salle multisports;12 RUE RENE BINET 75018;48.89948; 2.34247;X;
;CENTRE SPORTIF BERTRAND DAUVIN;Salle multisports;12 RUE RENE BINET 75018;48.89948; 2.34247;X;
;COLLEGE YVONNE LETAC;Salle multisports;7 RUE YVONNE LE TAC 75018;48.8903; 2.34069;X;
;COLLEGE YVONNE LETAC;Salle multisports;7 RUE YVONNE LE TAC 75018;48.8903; 2.34069;X;
;CENTRE SPORTIF BERTRAND DAUVIN;Plateau EPS/Multisports/city-stades;12 RUE RENE BINET 75018;48.89948; 2.34247;X;
;CENTRE SPORTIF BERTRAND DAUVIN;Salle multisports;12 RUE RENE BINET 75018;48.89948; 2.34247;X;
;CENTRE SPORTIF BERTRAND DAUVIN;Salle multisports;12 RUE RENE BINET 75018;48.89948; 2.34247;X;
;CENTRE SPORTIF BERTRAND DAUVIN;Salle multisports;12 RUE RENE BINET 75018;48.89948; 2.34247;X;
;CENTRE SPORTIF BERTRAND DAUVIN;Terrain de volley-ball;12 RUE RENE BINET 75018;48.89948; 2.34247;X;
;COLLEGE YVONNE LETAC;Salle multisports;7 RUE YVONNE LE TAC 75018;48.8903; 2.34069;X;
;CENTRE SPORTIF BERTRAND DAUVIN;Court de tennis;12 RUE RENE BINET 75018;48.8900538; 2.341705;X;
;CENTRE SPORTIF DES FILLETTES;Salle multisports;54 BOULEVARD NEY 75018;48.8986; 2.36331;X;
;COLLEGE DANIEL MAYER;Salle de lutte;2 PLACE HEBERT 75018;48.8932; 2.36379;X;
;STADE PORTE DE LA CHAPELLE;Terrain de football;56 BOULEVARD NEY 75018;48.8988; 2.3602;X;
;CENTRE SPORTIF BERTRAND DAUVIN;Terrain de handball;12 RUE RENE BINET 75018;48.89948; 2.34247;X;
;AZTECA CLUB;Salle de musculation/cardiotraining;36 RUE DE CRIMEE 75019;48.879; 2.39008;X;
;LYCEE BERGSON;Salle de gymnastique sportive;27 RUE EDOUARD PAILLERON 75019;48.8812; 2.3784;X;
;LYCEE BERGSON;Salle de gymnastique sportive;27 RUE EDOUARD PAILLERON 75019;48.8812; 2.3784;X;
;SALLES DE SPORT CHAUMONT LEPAGE;Salle de danse;15 RUE CHAUMONT 75019;48.8806; 2.37137;X;
;ENJOY BY FKC;Salle de musculation/cardiotraining;36 RUE DE NANTES 75019;48.8928; 2.38049;X;
;CENTRE SPORTIF HAUTPOUL;Plateau EPS/Multisports/city-stades;48 RUE D'HAUTPOUL 75019;48.884927; 2.388073;X;
;TENNIS DES SEPT ARPENTS;Court de tennis; RUE DES SEPTS ARPENTS 75019;48.8898; 2.39823;X;
;CENTRE SPORTIF JULES LADOUMEGUE;Plateau EPS/Multisports/city-stades; PLACE DE LA PORTE DE PANTIN 75019;48.8944; 2.39584;X;
;COLLEGE EDMOND MICHELET;Salle multisports;70 RUE DE L'OURCQ 75019;48.8936; 2.37506;X;
;ECOLE LUCIEN DE HIRCH;Salle multisports;70 AVENUE SECRETAN 75019;48.8798; 2.37629;X;
;SALLES DE SPORT CHAUMONT LEPAGE;Dojo / Salle d'arts martiaux;15 RUE CHAUMONT 75019;48.8806; 2.37137;X;
;LYCEE BERGSON;Plateau EPS/Multisports/city-stades;27 RUE EDOUARD PAILLERON 75019;48.8821; 2.37768;X;
;LYCEE PROFESSIONNEL ET TECHNIQUE JULES RICHARD;Salle multisports;21 RUE CARDUCCI 75019;48.877515; 2.385552;X;
;ECOLE LUCIEN DE HIRCH;Salle multisports;70 AVENUE SECRETAN 75019;48.8798; 2.37629;X;
;ECOLE LUCIEN DE HIRCH;Salle multisports;70 AVENUE SECRETAN 75019;48.8798; 2.37629;X;
;CENTRE SPORTIF EDOUARD PAILLERON;Court de tennis;24 RUE EDOUARD PAILLERON 75019;48.8807; 2.37721;X;
;TEP PIERRE REVERDY;Plateau EPS/Multisports/city-stades;4 RUE PIERRE REVERDY 75019;48.88547; 2.376418;X;
;TEP JANDELLE;Plateau EPS/Multisports/city-stades;15 CITE JANDELLE 75019;48.8753; 2.37955;X;
;REM GYM;Salle de musculation/cardiotraining;72 RUE DE ROMAINVILLE 75019;48.8773; 2.40344;X;
;REM GYM;Salle de musculation/cardiotraining;72 RUE DE ROMAINVILLE 75019;48.8773; 2.40344;X;
;COLLEGE CLAUDE CHAPPE;Structure Artificielle d'Escalade;9 RUE DES ALOUETTES 75019;48.8775; 2.40411;X;
;CENTRE D'ANIMATION CLAVEL;Salle de cours collectifs;26 RUE CLAVEL 75019;48.8764; 2.38669;X;
;ENJOY BY FKC;Salle de musculation/cardiotraining;36 RUE DE NANTES 75019;48.8928; 2.38049;X;
;CENTRE SPORTIF EDOUARD PAILLERON;Aire de lancer;24 RUE EDOUARD PAILLERON 75019;48.8807; 2.37721;X;
;PISCINE MUNICIPALE ROUVET;Bassin sportif de natation;1 RUE ROUVET 75019;48.893112; 2.385118;X;
;CENTRE SPORTIF MATHIS;Bassin sportif de natation;11 RUE MATHIS 75019;48.8908; 2.37497;X;
;LYCEE HECTOR GUIMARD;Salle multisports;19 RUE CURIAL 75019;48.8925; 2.37263;X;
;SQUARE PETIT;Terrain de football; RUE PETIT 75019;48.899; 2.38217;X;
;LYCEE JACQUARD;Salle multisports;2 bis RUE BOURET 75019;48.8807; 2.37634;X;
;GYMNASE AMYOT;Dojo / Salle d'arts martiaux;3 RUE AMYOT 75005;48.84344; 2.34773;X;
;GYMNASE BUFFON;Salle multisports;13 RUE BUFFON 75005;48.84272; 2.36221;X;
;CENTRE SPORTIF PICPUS;Aire de saut;56 RUE DE PICPUS 75012;48.84218; 2.39447;X;
;CENTRE D'ANIMATION BERCY;Salle de danse;51 RUE FRANCOIS TRUFFAUT 75012;48.83431; 2.38739;X;
;BOULODROME LEO LAGRANGE;Terrain de pétanque; ROUTE DES FORTIFICATIONS 75012;48.83129; 2.40157;X;
;CENTRE SPORTIF LÉON MOTTOT;Salle multisports;17 CITE MOYNET 75012;48.84404; 2.38655;X;
;VIT'HALLES NATION;Salle de cours collectifs;164 BOULEVARD DIDEROT 75012;48.84787; 2.39262;X;
;COURT COUVERT DE REUILLY;Salle multisports;16 BOULEVARD DE REUILLY 75012;48.83886; 2.39157;X;
;PALAIS OMNISPORTS - PARIS BERCY;Salle multisports;8 BOULEVARD DE BERCY 75012;48.8391; 2.37949;X;
;INSEP;Vélodrome;11 AVENUE DU TREMBLAY 75012;48.832521; 2.452236;X;
;GYMNASE BERCY A.S.P.T.T;Salle de tennis de table;242 RUE DE BERCY 75012;48.84733; 2.36879;X;
;COURT COUVERT DE REUILLY;Salles polyvalentes / des fêtes / non spécialisées;16 BOULEVARD DE REUILLY 75012;48.83886; 2.39157;X;
;STADE PERSHING;Terrain de rugby; AVENUE DU TREMBLAY 75012;48.83042; 2.45651;X;
;PALAIS OMNISPORTS - PARIS BERCY;Salle multisports;8 BOULEVARD DE BERCY 75012;48.8391; 2.37949;X;
;CENTRE D'ANIMATION MONTGALLET;Salle de danse;4 PASSAGE STINVILLE 75012;48.844212; 2.388276;X;
;GYMNASE REUILLY;Salle de danse;43 allée VIVALDI 75012;48.84156; 2.39128;X;
;STADE LEO LAGRANGE;Plateau EPS/Multisports/city-stades; ROUTE DE LA PYRAMIDE 75012;48.83624; 2.44063;X;
;T.E.P. BERCY;Plateau EPS/Multisports/city-stades;41 RUE PAUL BELMONDO 75012;48.83669; 2.37955;X;
;SKATE PARK DE BERCY;Skate park;1 BOULEVARD DE BERCY 75012;48.837054; 2.378912;X;
;INSEP;Salle de gymnastique sportive;11 AVENUE DU TREMBLAY 75012;48.83099; 2.452408;X;
;E.N.S.T;Court de tennis;46 RUE BARRAULT 75013;48.82616; 2.34606;X;
;UNION SPORTIVE MAISON BLANCHE;Salle de musculation/cardiotraining;22 RUE CHARLES FOURIER 75013;48.82511; 2.35147;X;
;SMOKING ET BRILLANTINE;Salle de danse;13 RUE GUYTON DE MORVEAU 75013;48.8247; 2.34789;X;
;LYCEE COLLEGE CLAUDE MONET;Salle de danse;1 RUE DU DOCTEUR MAGNAN 75013;48.82703; 2.36242;X;
;GYMNASE MARCEL CERDAN;Salle multisports;5 bis RUE EUGENE OUDINE 75013;48.82595; 2.37612;X;
;TEP DES CORDELIERES;Plateau EPS/Multisports/city-stades;35 RUE DES CORDELIERES 75013;48.8331; 2.34878;X;
;CENTRE SPORTIF CHÂTEAU DES RENTIERS;Salle multisports;184 RUE DU CHÂTEAU DES RENTIERS 75013;48.83058; 2.363;X;
;ECOLE NATIONALE CHIMIE PHYSIQUE BIOLOGIE;Terrain de basket-ball;11 RUE PIRANDELLO 75013;48.83684; 2.35749;X;
;COLLEGE THOMAS MANN;Salle multisports;91 AVENUE DE FRANCE 75013;48.82828; 2.37763;X;
;UNION SPORTIVE MAISON BLANCHE;Plateau EPS/Multisports/city-stades;22 RUE CHARLES FOURIER 75013;48.82535; 2.35188;X;
;CENTRE D'ANIMATION DAVIEL;Salle de danse;24 RUE DAVIEL 75013;48.82843; 2.34508;X;
;CITE SCOLAIRE RODIN;Terrain de basket-ball;19 RUE CORVISART 75013;48.8322; 2.34795;X;
;SALLE DE TENNIS DE TABLE GEORGES CARPENTIER;Salle de tennis de table;1 RUE DIEUDONNE COSTES 75013;48.82063; 2.37002;X;
;CENTRE SPORTIF GLACIERE 121;Salle multisports;121 RUE DE LA GLACIERE 75013;48.82712; 2.34235;X;
;CENTRE D'ANIMATION DUNOIS;Salle de danse;61 RUE DUNOIS 75013;48.83255; 2.3669;X;
;CENTRE SPORTIF GLACIERE 121;Salle multisports;121 RUE DE LA GLACIERE 75013;48.82712; 2.34235;X;
;CENTRE SPORTIF DU DOCTEUR BOURNEVILLE KELLERMANN;Salle multisports;5 RUE DU DOCTEUR BOURNEVILLE 75013;48.81861; 2.35748;X;
;LYCEE COLLEGE CLAUDE MONET;Salle multisports;1 RUE DU DOCTEUR MAGNAN 75013;48.82703; 2.36242;X;
;LYCEE COLLEGE CLAUDE MONET;Salle multisports;1 RUE DU DOCTEUR MAGNAN 75013;48.82703; 2.36242;X;
;CASERNE KELLERMANN;Salle multisports;56 boulevard kellermann 75013;48.82068; 2.34848;X;
;STADE CHARLETY;Salle multisports;99 BOULEVARD KELLERMANN 75013;48.81813; 2.34531;X;
;LYCEE COLLEGE CLAUDE MONET;Salle multisports;1 RUE DU DOCTEUR MAGNAN 75013;48.82703; 2.36242;X;
;GYMNASE CHOISY;Salle multisports;4 bis AVENUE DE CHOISY 75013;48.82093; 2.36547;X;
;GYMNASE CHOISY;Salle multisports;4 bis AVENUE DE CHOISY 75013;48.82093; 2.36547;X;
;CITE SCOLAIRE RODIN;Salle multisports;19 RUE CORVISART 75013;48.83255; 2.3486;X;
;STADE CHARLETY;Court de tennis;99 BOULEVARD KELLERMANN 75013;48.81684; 2.34588;X;
;CASERNE KELLERMANN;Salle multisports;56 boulevard kellermann 75013;48.82068; 2.34848;X;
;LYCEE COLLEGE CLAUDE MONET;Salle multisports;1 RUE DU DOCTEUR MAGNAN 75013;48.82703; 2.36242;X;
;ECOLE COLLEGE SAINTE ANNE;Salle multisports;109 RUE BOBILLOT 75013;48.82342; 2.34884;X;
;CITE SCOLAIRE RODIN;Salle multisports;19 RUE CORVISART 75013;48.83255; 2.3486;X;
;PISCINE MUNICIPALE DE LA BUTTES AUX CAILLES;Bassin ludique de natation;5 PLACE PAUL VERLAINE 75013;48.82684; 2.35261;X;
;ECOLE COLLEGE NOTRE DAME DE LA GARE;Plateau EPS/Multisports/city-stades;20 RUE DOMREMY 75013;48.83014; 2.37188;X;
;CLUB MED Italie;Salle de musculation/cardiotraining;14 RUE VANDREZANNE 75013;48.82813; 2.35569;X;
;LYCEE GASTON BACHELARD;Salle de musculation/cardiotraining;2 RUE TAGORE 75013;48.82058; 2.36017;X;
;PISCINE MUNICIPALE DE LA BUTTES AUX CAILLES;Salle de musculation/cardiotraining;5 PLACE PAUL VERLAINE 75013;48.82746; 2.35215;X;
;LYCEE JEAN LURCAT;Salle multisports;48 AVENUE DES GOBELINS 75013;48.83405; 2.35283;X;
;ECOLE COLLEGE SAINTE ANNE;Salle multisports;109 RUE BOBILLOT 75013;48.82342; 2.34884;X;
;STADE CHARLETY;Court de tennis;99 BOULEVARD KELLERMANN 75013;48.81726; 2.3468;X;
;CLUB MED Italie;Salle de cours collectifs;14 RUE VANDREZANNE 75013;48.82813; 2.35569;X;
;ECOLE NATIONALE CHIMIE PHYSIQUE BIOLOGIE;Aire de lancer;11 RUE PIRANDELLO 75013;48.83666; 2.35794;X;
;GYMNASE CHOISY;Salle multisports;4 bis AVENUE DE CHOISY 75013;48.82093; 2.36547;X;
;STADE CHARLETY;Salle multisports;99 BOULEVARD KELLERMANN 75013;48.81813; 2.34531;X;
;CENTRE SPORTIF GEORGES CARPENTIER;Terrain de football;81 BOULEVARD MASSENA 75013;48.81944; 2.3696;X;
;GYMNASE CAILLAUX;Salle de danse;3 RUE CAILLAUX 75013;48.82316; 2.36153;X;
;CLUB MED Italie;Salle de musculation/cardiotraining;14 RUE VANDREZANNE 75013;48.82813; 2.35569;X;
;CITE SCOLAIRE RODIN;Salle multisports;19 RUE CORVISART 75013;48.83255; 2.3486;X;
;COMPLEXE SPORTIF DE CHOISY;Salle multisports;13 AVENUE DE LA PORTE DE CHOISY 75013;48.8184; 2.36538;X;
;COLLEGE GEORGES BRAQUE;Terrain de volley-ball;95 RUE BRILLAT SAVARIN 75013;48.82451; 2.3425;X;
;GYMNASE DE LA POINTE D'IVRY;Salle multisports;47 AVENUE D'IVRY 75013;48.82309; 2.36561;X;
;LYCEE COLLEGE CLAUDE MONET;Salle multisports;1 RUE DU DOCTEUR MAGNAN 75013;48.82703; 2.36242;X;
;GYMNASE KELLERMANN;Salle multisports;110 BOULEVARD KELLERMANN 75013;48.81972; 2.3448;X;
;CITE SCOLAIRE RODIN;Salle multisports;19 RUE CORVISART 75013;48.83255; 2.3486;X;
;COMPLEXE SPORTIF DE CHOISY;Salle multisports;13 AVENUE DE LA PORTE DE CHOISY 75013;48.8184; 2.36538;X;
;CENTRE D'ANIMATION DUNOIS;Salles polyvalentes / des fêtes / non spécialisées;61 RUE DUNOIS 75013;48.83255; 2.3669;X;
;CLUB MED Italie;Salle de culturisme;14 RUE VANDREZANNE 75013;48.82813; 2.35569;X;
;CENTRE SPORTIF AUGUSTE BLANQUI;Salle multisports;26 BOULEVARD AUGUSTE BLANQUI 75013;48.83058; 2.35168;X;
;CENTRE SPORTIF AUGUSTE BLANQUI;Salle multisports;26 BOULEVARD AUGUSTE BLANQUI 75013;48.83058; 2.35168;X;
;CLUB MED Italie;Salle de tennis de table;14 RUE VANDREZANNE 75013;48.82813; 2.35569;X;
;SQUARE DE CHOISY;Plaine de jeux; RUE CHARLES MOUREU 75013;48.82816; 2.36117;X;
;CENTRE SPORTIF GEORGES CARPENTIER;Salle multisports;81 BOULEVARD MASSENA 75013;48.82039; 2.36738;X;
;CASERNE KELLERMANN;Dojo / Salle d'arts martiaux;56 boulevard kellermann 75013;48.82068; 2.34848;X;
;STADE CHARLETY;Salle multisports;99 BOULEVARD KELLERMANN 75013;48.81813; 2.34531;X;
;CENTRE SPORTIF GEORGES CARPENTIER;Salle multisports;81 BOULEVARD MASSENA 75013;48.82039; 2.36738;X;
;CENTRE SPORTIF GEORGES CARPENTIER;Salle multisports;81 BOULEVARD MASSENA 75013;48.82059; 2.36806;X;
;CENTRE SPORTIF GEORGES CARPENTIER;Salle multisports;81 BOULEVARD MASSENA 75013;48.82039; 2.36738;X;
;GYMNASE MARCEL CERDAN;Salle de cours collectifs;5 bis RUE EUGENE OUDINE 75013;48.82595; 2.37612;X;
;ECOLE COLLEGE NOTRE DAME DE LA GARE;Salle multisports;20 RUE DOMREMY 75013;48.83015; 2.37225;X;
;CENTRE SPORTIF AUGUSTE BLANQUI;Salle multisports;26 BOULEVARD AUGUSTE BLANQUI 75013;48.83058; 2.35168;X;
;LYCEE JEAN LURCAT;Salle multisports;48 AVENUE DES GOBELINS 75013;48.83405; 2.35283;X;
;BIBLIOTHEQUE FRANCOIS MITTERAND;Salle de musculation/cardiotraining;11 QUAI FRANCOIS-MAURIAC 75013;48.83418; 2.3747;X;
;CENTRE SPORTIF GEORGES CARPENTIER;Salle multisports;81 BOULEVARD MASSENA 75013;48.82023; 2.36978;X;
;CENTRE SPORTIF GEORGES CARPENTIER;Salle multisports;81 BOULEVARD MASSENA 75013;48.82023; 2.36978;X;
;TEP DUNOIS;Plateau EPS/Multisports/city-stades;59 RUE DUNOIS 75013;48.8323; 2.36609;X;
;CENTRE SPORTIF GEORGES CARPENTIER;Salle multisports;81 BOULEVARD MASSENA 75013;48.82023; 2.36978;X;
;CENTRE SPORTIF GEORGES CARPENTIER;Salle multisports;81 BOULEVARD MASSENA 75013;48.82023; 2.36978;X;
;CENTRE SPORTIF GEORGES CARPENTIER;Salle multisports;81 BOULEVARD MASSENA 75013;48.82023; 2.36978;X;
;CENTRE SPORTIF GEORGES CARPENTIER;Salle multisports;81 BOULEVARD MASSENA 75013;48.82023; 2.36978;X;
;CENTRE SPORTIF GEORGES CARPENTIER;Salle multisports;81 BOULEVARD MASSENA 75013;48.82023; 2.36978;X;
;GYMNASE JEAN PREVOST;Salle multisports;88 RUE DE LA GLACIERE 75013;48.82979; 2.34307;X;
;GYMNASE JEAN PREVOST;Salle multisports;88 RUE DE LA GLACIERE 75013;48.82979; 2.34307;X;
;PISCINE MUNICIPALE DE LA BUTTES AUX CAILLES;Bassin sportif de natation;5 PLACE PAUL VERLAINE 75013;48.8269; 2.35288;X;
;CENTRE D'ANIMATION RICHET;Dojo / Salle d'arts martiaux;12 RUE DU DOCTEUR CHARLES RICHET 75013;48.83197; 2.36408;X;
;CENTRE SPORTIF GEORGES CARPENTIER;Terrain de rugby;81 BOULEVARD MASSENA 75013;48.81901; 2.36831;X;
;CENTRE SPORTIF GEORGES CARPENTIER;Salle multisports;81 BOULEVARD MASSENA 75013;48.82023; 2.36978;X;
;CENTRE D'ANIMATION DUNOIS;Dojo / Salle d'arts martiaux;61 RUE DUNOIS 75013;48.83255; 2.3669;X;
;CENTRE D'ANIMATION POTERNE DES PEUPLIERS;Dojo / Salle d'arts martiaux;1 RUE GOUTHIERE 75013;48.82069; 2.35134;X;
;CENTRE SPORTIF GEORGES CARPENTIER;Salle multisports;81 BOULEVARD MASSENA 75013;48.82039; 2.36738;X;
;GYMNASE CAILLAUX;Salle d'escrime;3 RUE CAILLAUX 75013;48.82316; 2.36153;X;
;CENTRE D'ANIMATION DUNOIS;Dojo / Salle d'arts martiaux;61 RUE DUNOIS 75013;48.83255; 2.3669;X;
;UNION SPORTIVE MAISON BLANCHE;Pas de tir à l'arc;22 RUE CHARLES FOURIER 75013;48.82511; 2.35147;X;
;GYMNASE CAILLAUX;Salle d'escrime;3 RUE CAILLAUX 75013;48.82316; 2.36153;X;
;BIBLIOTHEQUE FRANCOIS MITTERAND;Salle de danse;11 QUAI FRANCOIS-MAURIAC 75013;48.83418; 2.3747;X;
;CASERNE MASSENA;Dojo / Salle d'arts martiaux;3 RUE DARMESTETER 75013;48.8277; 2.37551;X;
;ECOLE COLLEGE NOTRE DAME DE LA GARE;Plateau EPS/Multisports/city-stades;20 RUE DOMREMY 75013;48.8305; 2.37211;X;
;CASERNE MASSENA;Dojo / Salle d'arts martiaux;3 RUE DARMESTETER 75013;48.8277; 2.37551;X;
;CENTRE D'ANIMATION DAVIEL;Dojo / Salle d'arts martiaux;24 RUE DAVIEL 75013;48.82843; 2.34508;X;
;CASERNE MASSENA;Dojo / Salle d'arts martiaux;3 RUE DARMESTETER 75013;48.8277; 2.37551;X;
;STADE BOUTROUX;Skate park;1 AVENUE BOUTROUX 75013;48.82177; 2.3781;X;
;ECOLE COLLEGE NOTRE DAME DE LA GARE;Salle multisports;20 RUE DOMREMY 75013;48.83015; 2.37225;X;
;CENTRE SPORTIF GEORGES CARPENTIER;Salle multisports;81 BOULEVARD MASSENA 75013;48.82039; 2.36738;X;
;STADE CHARLETY;Dojo / Salle d'arts martiaux;99 BOULEVARD KELLERMANN 75013;48.81813; 2.34531;X;
;GYMNASE CAILLAUX;Salle multisports;3 RUE CAILLAUX 75013;48.82316; 2.36153;X;
;GYMNASE CAILLAUX;Dojo / Salle d'arts martiaux;3 RUE CAILLAUX 75013;48.82316; 2.36153;X;
;CENTRE SPORTIF GEORGES CARPENTIER;Terrain de pétanque;81 BOULEVARD MASSENA 75013;48.82017; 2.36671;X;
;STADE CHARLETY;Dojo / Salle d'arts martiaux;99 BOULEVARD KELLERMANN 75013;48.81813; 2.34531;X;
;CASERNE KELLERMANN;Structure Artificielle d'Escalade;56 boulevard kellermann 75013;48.82068; 2.34848;X;
;GYMNASE CAILLAUX;Dojo / Salle d'arts martiaux;3 RUE CAILLAUX 75013;48.82316; 2.36153;X;
;STADE CHARLETY;Stade d’athlétisme;99 BOULEVARD KELLERMANN 75013;48.8179; 2.34539;X;
;ECOLE NATIONALE CHIMIE PHYSIQUE BIOLOGIE;Piste d'athlétisme isolée;11 RUE PIRANDELLO 75013;48.83644; 2.35712;X;
;COLLEGE MOULINS DES PRES;Salle multisports;18 RUE DU MOULIN DES PRES 75013;48.82847; 2.35265;X;
;LYCEE GABRIEL FAURE;Salle multisports;81 AVENUE DE CHOISY 75013;48.8236; 2.35246;X;
;COLLEGE MOULINS DES PRES;Salle multisports;18 RUE DU MOULIN DES PRES 75013;48.82847; 2.35265;X;
;STADE TOUR A PARACHUTES;Terrain de football;7 AVENUE DE LA PORTE DE CHOISY 75013;48.81731; 2.36418;X;
;GROUPE SCOLAIRE YABNE;Salle multisports;29 AVENUE LEON BOLLE 75013;48.81762; 2.36098;X;
;COLLEGE GEORGES SAND;Salle multisports;159 RUE DE TOLBIAC 75013;48.82569; 2.35564;X;
;GYMNASE JEAN PREVOST;Salle de danse;88 RUE DE LA GLACIERE 75013;48.82979; 2.34307;X;
;LYCEE GABRIEL FAURE;Salle multisports;81 AVENUE DE CHOISY 75013;48.8236; 2.35246;X;
;CENTRE SPORTIF DUNOIS;Salle multisports;70 RUE DUNOIS 75013;48.83311; 2.3663;X;
;LYCEE GABRIEL FAURE;Terrain de handball;81 AVENUE DE CHOISY 75013;48.82371; 2.35976;X;
;CENTRE SPORTIF DUNOIS;Salle de tennis de table;70 RUE DUNOIS 75013;48.83311; 2.3663;X;
;CENTRE SPORTIF DUNOIS;Salle de tennis de table;70 RUE DUNOIS 75013;48.83311; 2.3663;X;
;CENTRE SPORTIF DUNOIS;Salle de tennis de table;70 RUE DUNOIS 75013;48.83311; 2.3663;X;
;CENTRE SPORTIF JOSEPHINE BECKER;Salle de musculation/cardiotraining; Quai francois mauriac-port de la gare 75013;48.83609; 2.37581;X;
;GYMNASE HUYGHENS;Salle de gymnastique sportive;10 RUE HUYGHENS 75014;48.84076; 2.32846;X;
;SALLES DE SPORT GUILLEMINOT;Salle de danse;22 RUE GUILLEMINOT 75014;48.83577; 2.31812;X;
;CENTRE SPORTIF JULES NOEL;Stade d’athlétisme;3 AVENUE MAURICE D'OCAGNE 75014;48.82389; 2.31464;X;
;CITE INTERNATIONALE UNIVERSITAIRE DE PARIS;Terrain de football;19 BOULEVARD JOURDAN 75014;48.81826; 2.33947;X;
;GYMNASE HUYGHENS;Salle de gymnastique sportive;10 RUE HUYGHENS 75014;48.84076; 2.32846;X;
;ASPTT PARIS - SALLE BACHELARD;Dojo / Salle d'arts martiaux;12 ALLEE GASTON BACHELARD 75014;48.82629; 2.31486;X;
;GYMNASE HUYGHENS;Salle de gymnastique sportive;10 RUE HUYGHENS 75014;48.84076; 2.32846;X;
;GYMNASE HUYGHENS;Salle de gymnastique sportive;10 RUE HUYGHENS 75014;48.84076; 2.32846;X;
;ASPTT PARIS - SALLE BACHELARD;Dojo / Salle d'arts martiaux;12 ALLEE GASTON BACHELARD 75014;48.82629; 2.31486;X;
;LYCÉE FRANÇOIS VILLON;Salle multisports;16 AVENUE MARC SANGNIER 75014;48.82524; 2.30779;X;
;CENTRE SPORTIF DU COMMANDANT MOUCHOTTE;Salle multisports;33 RUE DU COMMANDANT MOUCHOTTE 75014;48.83829; 2.32015;X;
;CENTRE SPORTIF JULES NOEL;Salle multisports;3 AVENUE MAURICE D'OCAGNE 75014;48.82423; 2.31451;X;
;CENTRE SPORTIF DIDOT;Salle multisports;26 AVENUE GEORGES LAFENESTRE 75014;48.82456; 2.30957;X;
;VIT'HALLES RASPAIL;Salle de musculation/cardiotraining;226 BOULEVARD RASPAIL 75014;48.83958; 2.33023;X;
;CAISSE DES DEPOTS - USAC;Salle multisports;4 PLACE RAOUL DAUTRY 75014;48.84148; 2.32026;X;
;CITE INTERNATIONALE UNIVERSITAIRE DE PARIS;Terrain de volley-ball;19 BOULEVARD JOURDAN 75014;48.8194; 2.33219;X;
;GYMNASE AUGUSTE RENOIR;Salle multisports;207 RUE RAYMOND LOSSERAND 75014;48.82807; 2.30833;X;
;INSTITUT DU JUDO;Salle multisports;21-25 AVENUE  DE LA PORTE DE CHÂTILLON 75014;48.82262; 2.31557;X;
;CITE INTERNATIONALE UNIVERSITAIRE DE PARIS;Salle de tennis de table;19 BOULEVARD JOURDAN 75014;48.81928; 2.33806;X;
;CITE INTERNATIONALE UNIVERSITAIRE DE PARIS;Salle de tennis de table;19 BOULEVARD JOURDAN 75014;48.81928; 2.33806;X;
;GYMNASE CANGE;Salle multisports;11 RUE DU CANGE 75014;48.834; 2.31457;X;
;CENTRE SPORTIF DU COMMANDANT MOUCHOTTE;Court de tennis;33 RUE DU COMMANDANT MOUCHOTTE 75014;48.83794; 2.32027;X;
;CITE INTERNATIONALE UNIVERSITAIRE DE PARIS;Terrain de football;19 BOULEVARD JOURDAN 75014;48.8179; 2.33878;X;
;SALLES DE SPORT GUILLEMINOT;Salles polyvalentes / des fêtes / non spécialisées;22 RUE GUILLEMINOT 75014;48.83577; 2.31812;X;
;GYMNASE HUYGHENS;Salles polyvalentes / des fêtes / non spécialisées;10 RUE HUYGHENS 75014;48.84076; 2.32846;X;
;SALLES DE SPORT GUILLEMINOT;Dojo / Salle d'arts martiaux;22 RUE GUILLEMINOT 75014;48.83577; 2.31812;X;
;SALLES DE SPORT GUILLEMINOT;Dojo / Salle d'arts martiaux;22 RUE GUILLEMINOT 75014;48.83577; 2.31812;X;
;INSTITUT DU JUDO;Salle de musculation/cardiotraining;21-25 AVENUE  DE LA PORTE DE CHÂTILLON 75014;48.82262; 2.31557;X;
;INSTITUT DU JUDO;Salle multisports;21-25 AVENUE  DE LA PORTE DE CHÂTILLON 75014;48.82262; 2.31557;X;
;LYCEE PAUL BERT;Salle multisports;7 RUE HUYGHENS 75014;48.84083; 2.32925;X;
;COLLEGE JEAN MOULIN;Salle multisports;75 RUE D'ALESIA 75014;48.82756; 2.32813;X;
;CENTRE ALESIA 1;Salle multisports;99 RUE D'ALESIA 75014;48.82826; 2.32548;X;
;CENTRE ALESIA 2;Salle de danse;119 AVENUE GENERAL LECLERC 75014;48.82419; 2.32594;X;
;CENTRE D'ANIMATION VERCINGETORIX;Salle de danse;181 RUE VERCINGETORIX 75014;48.83162; 2.30983;X;
;LYCEE CATHERINE LABOURE;Salle multisports;29 RUE GASSENDI 75014;48.83378; 2.32642;X;
;L'OEUVRE D'EDUCATION POPULAIRE ET FAMILIALE;Salles polyvalentes / des fêtes / non spécialisées;5 RUE DU MOULIN VERT 75014;48.82921; 2.32576;X;
;L'OEUVRE D'EDUCATION POPULAIRE ET FAMILIALE;Salles polyvalentes / des fêtes / non spécialisées;5 RUE DU MOULIN VERT 75014;48.82921; 2.32576;X;
;LYCEE GERSON;Plateau EPS/Multisports/city-stades;31 RUE DE LA POMPE 75016;48.8598; 2.26996;X;
;CENTRE SPORTIF HENRY MORTHERLANT;Bassin sportif de natation;30 BOULEVARD LANNES 75016;48.86827; 2.27118;X;
;Lagardère Paris Racing;Terrain de volley-ball;1 CHEMIN DE LA CROIX CATELAN 75016;48.8658; 2.25687;X;
;Lagardère Paris Racing;Salle de musculation/cardiotraining;1 CHEMIN DE LA CROIX CATELAN 75016;48.8643; 2.25554;X;
;Lagardère Paris Racing;Bassin sportif de natation;1 CHEMIN DE LA CROIX CATELAN 75016;48.8642; 2.25602;X;
;TENNIS CLUB DE PARIS;Court de tennis;15 AVENUE FELIX D'HERELLE 75016;48.83529; 2.2576;X;
;TENNIS CLUB DE PARIS;Court de tennis;15 AVENUE FELIX D'HERELLE 75016;48.83529; 2.2576;X;
;LYCÉE SAINT JEAN DE PASSY;Salle de gymnastique sportive;72 RUE RAYNOUARD 75016;48.85427; 2.27849;X;
;PARC DES PRINCES;Terrain de football;24 RUE DU COMMANDANT GUILBAUD 75016;48.8421; 2.26653;X;
;LYCEE JANSON DE SAILLY;Salle de musculation/cardiotraining;106 RUE DE LA POMPE 75016;48.8655; 2.27945;X;
;LYCÉE SAINT JEAN DE PASSY;Salle de gymnastique sportive;72 RUE RAYNOUARD 75016;48.85427; 2.27849;X;
;CENTRE SPORTIF HENRY MORTHERLANT;Salle multisports;30 BOULEVARD LANNES 75016;48.86749; 2.27184;X;
;CENTRE SPORTIF HENRY MORTHERLANT;Court de tennis;30 BOULEVARD LANNES 75016;48.868419; 2.272048;X;
;CENTRE SPORTIF GEO ANDRE;Aire de saut;2 RUE DU COMMANDANT GUILBAUD 75016;48.83952; 2.252399;X;
;TEP JEAN PIERRE WIMILLE;Stade d’athlétisme;56 BOULEVARD DE L'AMIRAL BRUIX 75016;48.873245; 2.275547;X;
;CENTRE SPORTIF GEO ANDRE;Salle de cours collectifs;2 RUE DU COMMANDANT GUILBAUD 75016;48.83927; 2.25246;X;
;STADE PIERRE DE COUBERTIN;Salle multisports;84 AVENUE GEORGES LAFONT 75016;48.8498; 2.25549;X;
;CITE SCOLAIRE MOLIERE;Salle multisports;71 RUE DU RANELAGH 75016;48.855; 2.27219;X;
;STADE PIERRE DE COUBERTIN;Salle multisports;84 AVENUE GEORGES LAFONT 75016;48.8498; 2.25549;X;
;STADE PIERRE DE COUBERTIN;Salle multisports;84 AVENUE GEORGES LAFONT 75016;48.8498; 2.25549;X;
;CENTRE MUNICIPAL ARMAND MASSARD;Bassin sportif de natation;66 BOULEVARD DU MONTPARNASSE 75015;48.8441; 2.32261;X;
;COLLEGE MODIGLIANI;Salle multisports;1 RUE DE CHERBOURG 75015;48.8318; 2.30475;X;
;TEP VARET;Plateau EPS/Multisports/city-stades;2 RUE VARET 75015;48.8397; 2.28044;X;
;CENTRE CONVENTION;Salle de danse;159 RUE BLOMET 75015;48.8379; 2.29446;X;
;ETABLISSEMENT SCOLAIRE BUFFON;Salle multisports;16 BOULEVARD PASTEUR 75015;48.843; 2.31229;X;
;ETABLISSEMENT SAINT ELISABETH;Plateau EPS/Multisports/city-stades;112 RUE DE LOURMEL 75015;48.8428; 2.31019;X;
;CENTRE D'ANIMATION CEVENNES;Salle de danse;9 RUE DE LA MONTAGNE D'AULAS 75015;48.8403; 2.27896;X;
;STUDIO DANSE ENERGIE;Salle de cours collectifs;71 RUE DESNOUETTES 75015;48.835289; 2.285577;X;
;ANNEXE DU LYCEE CAMILLE SEE;Terrain de volley-ball;45 RUE MADEMOISELLE 75015;48.8436; 2.29799;X;
;CENTRE SPORTIF ÉMILE ANTOINE;Terrain de football;9 RUE JEAN REY 75015;48.8564; 2.2916;X;
;CENTRE SPORTIF CHARLES RIGOULOT;Court de tennis;18 AVENUE PORTE DE BRANCION 75015;48.826997; 2.297789;X;
;STUDIO CHANDON;Salle de danse;6 IMPASSE CHANDON 75015;48.8385; 2.28812;X;
;STUDIO CHANDON;Salle de danse;6 IMPASSE CHANDON 75015;48.8385; 2.28812;X;
;UNIVERSITE PARIS V (FACULTE DE NECKER );Salle multisports;156 RUE DE VAUGIRARD 75015;48.8433; 2.3135;X;
;CENTRE D'ANIMATION BRANCION;Salle de danse;18 AVENUE DE LA PORTE DE BRANCION 75015;48.8261; 2.30025;X;
;WAOU CLUB MED GYM PORTE DE SEVRES;Salle de musculation/cardiotraining;8 RUE LOUIS ARMAND 75015;48.8325; 2.27781;X;
;UNIVERSITE PARIS V (FACULTE DE NECKER );Salle multisports;156 RUE DE VAUGIRARD 75015;48.8433; 2.3135;X;
;COLLEGE ANDRE CITROEN;Salle multisports;198 RUE SAINT CHARLES 75015;48.8395; 2.27942;X;
;GYMNASE RAYMOND BURGARD;Salle multisports;251 RUE DE VAUGIRARD 75015;48.8403; 2.30412;X;
;ETABLISSEMENT SAINT ELISABETH;Salles polyvalentes / des fêtes / non spécialisées;112 RUE DE LOURMEL 75015;48.8428; 2.31019;X;
;U.F.R STAPS;Dojo / Salle d'arts martiaux;1 RUE LACRETELLE 75015;48.8387; 2.29079;X;
;CENTRE MUNICIPAL ARMAND MASSARD;Bassin sportif de natation;66 BOULEVARD DU MONTPARNASSE 75015;48.8441; 2.32261;X;
;COLLEGE ANDRE CITROEN;Salle multisports;198 RUE SAINT CHARLES 75015;48.8395; 2.27942;X;
;CENTRE D'ANIMATION BRANCION;Salle de danse;18 AVENUE DE LA PORTE DE BRANCION 75015;48.8261; 2.30025;X;
;TENNIS CLUB CHEMINOT DE VAUGIRARD;Court de tennis;399 RUE DE VAUGIRARD 75015;48.8333; 2.2898;X;
;TEP DU BESSIN BOCAGE;Salle ou terrain de badminton;15 RUE DU BESSIN 75015;48.8308; 2.30578;X;
;GYMNASE RAYMOND BURGARD;Salle multisports;251 RUE DE VAUGIRARD 75015;48.8403; 2.30412;X;
;GYMNASE SAINT LAMBERT;Salle de danse;8 RUE SAINT LAMBERT 75015;48.8383; 2.29077;X;
;U.F.R STAPS;Salle multisports;1 RUE LACRETELLE 75015;48.8387; 2.29079;X;
;COLLEGE MADAME DE STAEL;Plateau EPS/Multisports/city-stades;14 RUE DE STAEL 75015;48.8435; 2.31032;X;
;COLLEGE MADAME DE STAEL;Plateau EPS/Multisports/city-stades;14 RUE DE STAEL 75015;48.8435; 2.31032;X;
;ENGREF (ECOLE NATIONALE GENIE RURAL EAUX ET FORETS);Salle multisports;19 AVENUE DU MAINE 75015;48.8434; 2.32054;X;
;GYMNASE DE L'INGÉNIEUR KELLER;Salle multisports;16 RUE DE L'INGENIEUR KELLER 75015;48.8477; 2.2827;X;
;ANNEXE DU LYCEE CAMILLE SEE;Dojo / Salle d'arts martiaux;45 RUE MADEMOISELLE 75015;48.8436; 2.29799;X;
;ANNEXE DU LYCEE CAMILLE SEE;Dojo / Salle d'arts martiaux;45 RUE MADEMOISELLE 75015;48.8436; 2.29799;X;
;CENTRE SPORTIF LA PLAINE;Salle multisports;13 RUE DU GENERAL GUILLAUMAT 75015;48.8278; 2.29339;X;
;CENTRE SPORTIF LA PLAINE;Dojo / Salle d'arts martiaux;13 RUE DU GENERAL GUILLAUMAT 75015;48.8278; 2.29339;X;
;CENTRE SPORTIF LA PLAINE;Dojo / Salle d'arts martiaux;13 RUE DU GENERAL GUILLAUMAT 75015;48.8278; 2.29339;X;
;SQUARE CLOS FEUQUIERES;Plateau EPS/Multisports/city-stades; RUE DU CLOS FEUQUIERES (RUE DESNAUETTES) 75015;48.8366; 2.2908;X;
;CLUB MED GYM VAUGIRARD;Salle de danse;208 RUE VAUGIRARD 75015;48.8411; 2.30678;X;
;INSTITUT SAINT JEAN DE DIEU;Bassin ludique de natation;223 RUE LECOURBE 75015;48.8392; 2.29364;X;
;GYMNASE OLIVIER DE SERRES;Salle multisports;99 ter RUE OLIVIER DE SERRES 75015;48.8319; 2.29317;X;
